[
  {
    "name": "쏘카존 617컴퍼니",
    "address": "서울 강남구 논현동 31 지상 1층 건물 출입문 옆 화단 공간",
    "road_address": "서울 강남구 논현로145길 33",
    "lat": 37.5169781,
    "lng": 127.02629929,
    "sido": "서울특별시",
    "sigungu": "강남구"
  },
  {
    "name": "쏘카존 L7호텔 강남",
    "address": "서울 강남구 삼성동 142-41 지하 4층",
    "road_address": "서울 강남구 테헤란로 415",
    "lat": 37.50570272,
    "lng": 127.0515513,
    "sido": "서울특별시",
    "sigungu": "강남구"
  },
  {
    "name": "쏘카존 N168 오피스텔",
    "address": "서울 강남구 논현동 128-6 지하 2층",
    "road_address": "서울 강남구 학동로 168",
    "lat": 37.51312016,
    "lng": 127.02942541,
    "sido": "서울특별시",
    "sigungu": "강남구"
  },
  {
    "name": "쏘카존 SRT 수서역 주차타워 옥상층",
    "address": "서울 강남구 수서동 200-3 반드시 옥상층에 주차해주세요",
    "road_address": "",
    "lat": 37.48432041,
    "lng": 127.10527572,
    "sido": "서울특별시",
    "sigungu": "강남구"
  },
  {
    "name": "쏘카존 URG빌딩",
    "address": "서울 강남구 세곡동 613 지상 5층",
    "road_address": "서울 강남구 헌릉로569길 21-36",
    "lat": 37.46639837,
    "lng": 127.10016044,
    "sido": "서울특별시",
    "sigungu": "강남구"
  },
  {
    "name": "쏘카존 [부름호출존] 국기원 주차장",
    "address": "서울 강남구 역삼동 635 지상1층",
    "road_address": "서울 강남구 테헤란로7길 32",
    "lat": 37.5022476,
    "lng": 127.02997417,
    "sido": "서울특별시",
    "sigungu": "강남구"
  },
  {
    "name": "쏘카존 [부름호출존] 논현로22길 공영주차장",
    "address": "서울 강남구 개포동 1266 지상 1층",
    "road_address": "서울 강남구 개포로25길 32",
    "lat": 37.48136643,
    "lng": 127.04745192,
    "sido": "서울특별시",
    "sigungu": "강남구"
  },
  {
    "name": "쏘카존 [부름호출존] 대왕초교 공영주차장",
    "address": "서울 강남구 세곡동 517",
    "road_address": "서울 강남구 헌릉로618길 8",
    "lat": 37.46442859,
    "lng": 127.10553833,
    "sido": "서울특별시",
    "sigungu": "강남구"
  },
  {
    "name": "쏘카존 [부름호출존] 상록회관 주차장",
    "address": "서울 강남구 역삼동 701 지상1층",
    "road_address": "서울 강남구 언주로 508",
    "lat": 37.50390781,
    "lng": 127.04279987,
    "sido": "서울특별시",
    "sigungu": "강남구"
  },
  {
    "name": "쏘카존 [부름호출존] 언북초등학교 공영주차장",
    "address": "서울 강남구 청담동 27",
    "road_address": "서울 강남구 삼성로135길 42",
    "lat": 37.52039306,
    "lng": 127.04629678,
    "sido": "서울특별시",
    "sigungu": "강남구"
  },
  {
    "name": "쏘카존 [부름호출존] 푸르덴셜타워 민영 주차장",
    "address": "서울 강남구 역삼동 838-2 지하 5층",
    "road_address": "서울 강남구 강남대로 298",
    "lat": 37.49011944,
    "lng": 127.03230206,
    "sido": "서울특별시",
    "sigungu": "강남구"
  },
  {
    "name": "쏘카존 [부름호출존] 푸른솔도서관",
    "address": "서울 강남구 역삼동 827-61 지하1층",
    "road_address": "서울 강남구 테헤란로8길 36",
    "lat": 37.49649238,
    "lng": 127.03184455,
    "sido": "서울특별시",
    "sigungu": "강남구"
  },
  {
    "name": "쏘카존 [부름호출존]SPC2023",
    "address": "서울 강남구 도곡동 907-54",
    "road_address": "서울 강남구 논현로 201",
    "lat": 37.48615414,
    "lng": 127.04089923,
    "sido": "서울특별시",
    "sigungu": "강남구"
  },
  {
    "name": "쏘카존 [부름호출존]Tmap주차 새마을운동중앙회빌딩",
    "address": "서울 강남구 대치동 1008-4",
    "road_address": "서울 강남구 영동대로 316",
    "lat": 37.50282244,
    "lng": 127.06721847,
    "sido": "서울특별시",
    "sigungu": "강남구"
  },
  {
    "name": "쏘카존 [부름호출존]Tmap주차 에스모드서울",
    "address": "서울 강남구 신사동 528-8",
    "road_address": "서울 강남구 압구정로 106",
    "lat": 37.522661,
    "lng": 127.02033061,
    "sido": "서울특별시",
    "sigungu": "강남구"
  },
  {
    "name": "쏘카존 [부름호출존]Tmap주차 파티오나인(지하)",
    "address": "서울 강남구 논현동 66-24",
    "road_address": "서울 강남구 논현로 742",
    "lat": 37.51831186,
    "lng": 127.02897951,
    "sido": "서울특별시",
    "sigungu": "강남구"
  },
  {
    "name": "쏘카존 [부름호출존]아이파킹 신사스퀘어",
    "address": "서울 강남구 신사동 504-11",
    "road_address": "서울 강남구 강남대로 652",
    "lat": 37.51956898,
    "lng": 127.01904135,
    "sido": "서울특별시",
    "sigungu": "강남구"
  },
  {
    "name": "쏘카존 [부름호출존]카카오 T 원에디션강남",
    "address": "서울 강남구 역삼동 653-4",
    "road_address": "서울 강남구 언주로 563",
    "lat": 37.5078614,
    "lng": 127.03756213,
    "sido": "서울특별시",
    "sigungu": "강남구"
  },
  {
    "name": "쏘카존 강남 무이재 한방병원",
    "address": "서울 강남구 논현동 54-4 지하 5층",
    "road_address": "서울 강남구 학동로 117",
    "lat": 37.51206641,
    "lng": 127.02353208,
    "sido": "서울특별시",
    "sigungu": "강남구"
  },
  {
    "name": "쏘카존 강남 호텔데님 주차장",
    "address": "서울 강남구 개포동 1229-14 지하 3층",
    "road_address": "서울 강남구 논현로 66",
    "lat": 37.47619676,
    "lng": 127.04664371,
    "sido": "서울특별시",
    "sigungu": "강남구"
  },
  {
    "name": "쏘카존 개포동공원 공영주차장",
    "address": "서울 강남구 개포동 182-1 지하 1층",
    "road_address": "서울 강남구 개포로 509",
    "lat": 37.48960486,
    "lng": 127.06846627,
    "sido": "서울특별시",
    "sigungu": "강남구"
  },
  {
    "name": "쏘카존 극동빌딩(기계식)",
    "address": "서울 강남구 신사동 639-3 지상 1층 기계식 주차장 (오른쪽)",
    "road_address": "서울 강남구 압구정로 320",
    "lat": 37.52840285,
    "lng": 127.03634607,
    "sido": "서울특별시",
    "sigungu": "강남구"
  },
  {
    "name": "쏘카존 글라스타워",
    "address": "서울 강남구 대치동 946-1 지하 6층",
    "road_address": "서울 강남구 테헤란로 534",
    "lat": 37.50807773,
    "lng": 127.06278846,
    "sido": "서울특별시",
    "sigungu": "강남구"
  },
  {
    "name": "쏘카존 남국빌딩 뒷편주차장",
    "address": "서울 강남구 역삼동 733-8 지상 1층",
    "road_address": "서울 강남구 역삼로 215",
    "lat": 37.49679875,
    "lng": 127.04057256,
    "sido": "서울특별시",
    "sigungu": "강남구"
  },
  {
    "name": "쏘카존 논현3호 주차장",
    "address": "서울 강남구 논현동 117-7 지상 4층",
    "road_address": "서울 강남구 학동로47길 5",
    "lat": 37.51698278,
    "lng": 127.03874763,
    "sido": "서울특별시",
    "sigungu": "강남구"
  },
  {
    "name": "쏘카존 논현초교 공영주차장",
    "address": "서울 강남구 논현동 168 지하 2층",
    "road_address": "서울 강남구 강남대로120길 33",
    "lat": 37.50812295,
    "lng": 127.02664454,
    "sido": "서울특별시",
    "sigungu": "강남구"
  },
  {
    "name": "쏘카존 대명주차장",
    "address": "서울 강남구 역삼동 674-14 지상 1층",
    "road_address": "서울 강남구 테헤란로37길 26",
    "lat": 37.50387621,
    "lng": 127.04042145,
    "sido": "서울특별시",
    "sigungu": "강남구"
  },
  {
    "name": "쏘카존 대승주차장",
    "address": "서울 강남구 논현동 192-9 지상 1층",
    "road_address": "",
    "lat": 37.50781055,
    "lng": 127.03281863,
    "sido": "서울특별시",
    "sigungu": "강남구"
  },
  {
    "name": "쏘카존 대아주차장",
    "address": "서울 강남구 역삼동 627-5 지상 1층",
    "road_address": "",
    "lat": 37.50384135,
    "lng": 127.03379856,
    "sido": "서울특별시",
    "sigungu": "강남구"
  },
  {
    "name": "쏘카존 대청역 공영주차장",
    "address": "서울 강남구 개포동 13-2 지상 1층 쏘카 주차구역",
    "road_address": "서울 강남구 개포로 623-1",
    "lat": 37.49496098,
    "lng": 127.07914045,
    "sido": "서울특별시",
    "sigungu": "강남구"
  },
  {
    "name": "쏘카존 대치사거리 주차장",
    "address": "서울 강남구 대치동 980-5 지상 1층",
    "road_address": "서울 강남구 역삼로92길 30",
    "lat": 37.50233366,
    "lng": 127.06309466,
    "sido": "서울특별시",
    "sigungu": "강남구"
  },
  {
    "name": "쏘카존 더원역삼아파트(기계식)",
    "address": "서울 강남구 역삼동 738-29 지상 1층 기계식 주차장",
    "road_address": "서울 강남구 논현로 423",
    "lat": 37.49782588,
    "lng": 127.03793255,
    "sido": "서울특별시",
    "sigungu": "강남구"
  },
  {
    "name": "쏘카존 도곡더써밋타워(기계식)",
    "address": "서울 강남구 도곡동 954-17 지상 1층 기계식",
    "road_address": "서울 강남구 강남대로42길 19",
    "lat": 37.4855846,
    "lng": 127.03564013,
    "sido": "서울특별시",
    "sigungu": "강남구"
  },
  {
    "name": "쏘카존 도곡초교 공영주차장",
    "address": "서울 강남구 대치동 924-10 지하 1층 쏘카 주차구역",
    "road_address": "서울 강남구 선릉로64길 33",
    "lat": 37.4986003,
    "lng": 127.05507701,
    "sido": "서울특별시",
    "sigungu": "강남구"
  },
  {
    "name": "쏘카존 디앤오강남빌딩",
    "address": "서울 강남구 도곡동 956 지하 5층",
    "road_address": "서울 강남구 남부순환로 2621",
    "lat": 37.48543475,
    "lng": 127.0365706,
    "sido": "서울특별시",
    "sigungu": "강남구"
  },
  {
    "name": "쏘카존 롯데 하이마트 압구정점",
    "address": "서울 강남구 신사동 563-33 지상 1층",
    "road_address": "서울 강남구 도산대로 173",
    "lat": 37.5199079,
    "lng": 127.02746432,
    "sido": "서울특별시",
    "sigungu": "강남구"
  },
  {
    "name": "쏘카존 롯데시네마도곡",
    "address": "서울 강남구 도곡동 174-3 지상 4층",
    "road_address": "서울 강남구 남부순환로 2753",
    "lat": 37.48747185,
    "lng": 127.04700011,
    "sido": "서울특별시",
    "sigungu": "강남구"
  },
  {
    "name": "쏘카존 르메르디앙 제1주차장",
    "address": "서울 강남구 역삼동 615-21 지상 1층",
    "road_address": "서울 강남구 강남대로110길 41",
    "lat": 37.50439242,
    "lng": 127.02824239,
    "sido": "서울특별시",
    "sigungu": "강남구"
  },
  {
    "name": "쏘카존 미라클음악학원",
    "address": "서울 강남구 개포동 1260-14 지상 1층 필로티 외부 우측 주차구역",
    "road_address": "서울 강남구 개포로25길 6",
    "lat": 37.47932971,
    "lng": 127.04854504,
    "sido": "서울특별시",
    "sigungu": "강남구"
  },
  {
    "name": "쏘카존 보타니끄논현 주차장",
    "address": "서울 강남구 논현동 218-27 지하 5층",
    "road_address": "서울 강남구 언주로 621",
    "lat": 37.51200761,
    "lng": 127.03531337,
    "sido": "서울특별시",
    "sigungu": "강남구"
  },
  {
    "name": "쏘카존 비젼타워",
    "address": "서울 강남구 역삼동 826-26 지하 4층",
    "road_address": "서울 강남구 테헤란로2길 27",
    "lat": 37.49649384,
    "lng": 127.0297163,
    "sido": "서울특별시",
    "sigungu": "강남구"
  },
  {
    "name": "쏘카존 삼성동 파크엘나인(기계식)",
    "address": "서울 강남구 삼성동 113-4 지상 1층 기계식 주차장",
    "road_address": "서울 강남구 봉은사로 426",
    "lat": 37.51075667,
    "lng": 127.04671045,
    "sido": "서울특별시",
    "sigungu": "강남구"
  },
  {
    "name": "쏘카존 삼성동 하남빌딩 (기계식)",
    "address": "서울 강남구 삼성동 157-18 지상 1층 기계식 주차",
    "road_address": "서울 강남구 테헤란로83길 11",
    "lat": 37.50816424,
    "lng": 127.05746935,
    "sido": "서울특별시",
    "sigungu": "강남구"
  },
  {
    "name": "쏘카존 삼성동퍼스트주차타워",
    "address": "서울 강남구 삼성동 148-7 지상 3층",
    "road_address": "",
    "lat": 37.51218667,
    "lng": 127.05673837,
    "sido": "서울특별시",
    "sigungu": "강남구"
  },
  {
    "name": "쏘카존 삼성로414 주차장",
    "address": "서울 강남구 대치동 959-5 지하 1층",
    "road_address": "서울 강남구 삼성로 414",
    "lat": 37.50413269,
    "lng": 127.05838008,
    "sido": "서울특별시",
    "sigungu": "강남구"
  },
  {
    "name": "쏘카존 삼성주차장",
    "address": "서울 강남구 역삼동 725-28 지상 1층",
    "road_address": "",
    "lat": 37.49981722,
    "lng": 127.04028355,
    "sido": "서울특별시",
    "sigungu": "강남구"
  },
  {
    "name": "쏘카존 선릉역 대우아이빌 (기계식)",
    "address": "서울 강남구 대치동 890-49 지하 3층 기계식",
    "road_address": "서울 강남구 테헤란로64길 9",
    "lat": 37.50449627,
    "lng": 127.05155499,
    "sido": "서울특별시",
    "sigungu": "강남구"
  },
  {
    "name": "쏘카존 선정릉역 모아엘가퍼스트홈",
    "address": "서울 강남구 논현동 278-4 지하 4층",
    "road_address": "서울 강남구 봉은사로 333",
    "lat": 37.51053731,
    "lng": 127.04306153,
    "sido": "서울특별시",
    "sigungu": "강남구"
  },
  {
    "name": "쏘카존 성지하이츠 3차",
    "address": "서울 강남구 역삼동 642-12 지하 6층",
    "road_address": "서울 강남구 논현로 507",
    "lat": 37.50156017,
    "lng": 127.03625955,
    "sido": "서울특별시",
    "sigungu": "강남구"
  },
  {
    "name": "쏘카존 수서역 공영주차장",
    "address": "서울 강남구 수서동 735 지상 1층",
    "road_address": "",
    "lat": 37.48788131,
    "lng": 127.09995506,
    "sido": "서울특별시",
    "sigungu": "강남구"
  },
  {
    "name": "쏘카존 수서제이스프라자",
    "address": "서울 강남구 수서동 754 지하 3층",
    "road_address": "서울 강남구 광평로 196",
    "lat": 37.48412228,
    "lng": 127.09450707,
    "sido": "서울특별시",
    "sigungu": "강남구"
  },
  {
    "name": "쏘카존 스타뷰빌",
    "address": "서울 강남구 역삼동 725-6 지상 1층 쏘카 주차구역",
    "road_address": "서울 강남구 테헤란로28길 24",
    "lat": 37.49954195,
    "lng": 127.03900098,
    "sido": "서울특별시",
    "sigungu": "강남구"
  },
  {
    "name": "쏘카존 신구초교공영주차장",
    "address": "서울 강남구 신사동 550-11 지하 2층",
    "road_address": "서울 강남구 압구정로18길 28",
    "lat": 37.52271266,
    "lng": 127.02357502,
    "sido": "서울특별시",
    "sigungu": "강남구"
  },
  {
    "name": "쏘카존 압구정주차장",
    "address": "서울 강남구 신사동 664-23 지상 1층",
    "road_address": "서울 강남구 압구정로54길 15",
    "lat": 37.52679804,
    "lng": 127.0395514,
    "sido": "서울특별시",
    "sigungu": "강남구"
  },
  {
    "name": "쏘카존 언주초교 공영주차장",
    "address": "서울 강남구 도곡동 922 지하 1층 쏘카 주차구역",
    "road_address": "서울 강남구 남부순환로363길 19",
    "lat": 37.48690031,
    "lng": 127.03778795,
    "sido": "서울특별시",
    "sigungu": "강남구"
  },
  {
    "name": "쏘카존 에이빌딩 주차장",
    "address": "서울 강남구 역삼동 751-19 지상 1층 쏘카 주차구역",
    "road_address": "서울 강남구 역삼로15길 3",
    "lat": 37.49514704,
    "lng": 127.03549201,
    "sido": "서울특별시",
    "sigungu": "강남구"
  },
  {
    "name": "쏘카존 역삼1동문화센터 공영주차장",
    "address": "서울 강남구 역삼동 829-20 지하 2층 나눔카 주차구역",
    "road_address": "서울 강남구 역삼로7길 16",
    "lat": 37.49539915,
    "lng": 127.03297378,
    "sido": "서울특별시",
    "sigungu": "강남구"
  },
  {
    "name": "쏘카존 역삼경남아파트 상가주차장",
    "address": "서울 강남구 역삼동 722 지하 1층",
    "road_address": "서울 강남구 언주로85길 13",
    "lat": 37.50050033,
    "lng": 127.04245752,
    "sido": "서울특별시",
    "sigungu": "강남구"
  },
  {
    "name": "쏘카존 역삼동 제일주차장",
    "address": "서울 강남구 역삼동 629-5 지상 1층",
    "road_address": "",
    "lat": 37.50349884,
    "lng": 127.03422252,
    "sido": "서울특별시",
    "sigungu": "강남구"
  },
  {
    "name": "쏘카존 제일주차장",
    "address": "서울 강남구 대치동 1000-5 지상 1층",
    "road_address": "서울 강남구 테헤란로108길 26",
    "lat": 37.50771099,
    "lng": 127.06615292,
    "sido": "서울특별시",
    "sigungu": "강남구"
  },
  {
    "name": "쏘카존 청담동 아노블리81타워(기계식)",
    "address": "서울 강남구 청담동 91-2 지하 1층 기계식",
    "road_address": "서울 강남구 도산대로 419",
    "lat": 37.52386907,
    "lng": 127.04162797,
    "sido": "서울특별시",
    "sigungu": "강남구"
  },
  {
    "name": "쏘카존 청담주차장",
    "address": "서울 강남구 청담동 49-3 지하 3층 A-1,2 구역",
    "road_address": "서울 강남구 삼성로148길 10",
    "lat": 37.52376638,
    "lng": 127.04863038,
    "sido": "서울특별시",
    "sigungu": "강남구"
  },
  {
    "name": "쏘카존 치매지원센터 공영주차장",
    "address": "서울 강남구 삼성동 113-26 지상 2층",
    "road_address": "서울 강남구 선릉로108길 27",
    "lat": 37.51026935,
    "lng": 127.04638667,
    "sido": "서울특별시",
    "sigungu": "강남구"
  },
  {
    "name": "쏘카존 커먼타운 트리하우스",
    "address": "서울 강남구 역삼동 791-15 지하 1층 09 카셰어링 주차구역",
    "road_address": "서울 강남구 도곡로23길 33",
    "lat": 37.49442794,
    "lng": 127.03868169,
    "sido": "서울특별시",
    "sigungu": "강남구"
  },
  {
    "name": "쏘카존 케이스퀘어강남2(기계식)",
    "address": "서울 강남구 역삼동 826 지상 1층 기계식 주차장",
    "road_address": "서울 강남구 강남대로 374",
    "lat": 37.49621102,
    "lng": 127.02932831,
    "sido": "서울특별시",
    "sigungu": "강남구"
  },
  {
    "name": "쏘카존 코엑스 옥상주차장",
    "address": "서울 강남구 삼성동 159 옥상(RF)층",
    "road_address": "서울 강남구 영동대로 511",
    "lat": 37.51062732,
    "lng": 127.05980687,
    "sido": "서울특별시",
    "sigungu": "강남구"
  },
  {
    "name": "쏘카존 키움저축 주차장",
    "address": "서울 강남구 역삼동 726-14 지상 1층",
    "road_address": "서울 강남구 논현로 426",
    "lat": 37.49833929,
    "lng": 127.03841909,
    "sido": "서울특별시",
    "sigungu": "강남구"
  },
  {
    "name": "쏘카존 포이초교 공영주차장",
    "address": "서울 강남구 개포동 1273 지하 2층",
    "road_address": "서울 강남구 개포로22길 87",
    "lat": 37.47494866,
    "lng": 127.05148269,
    "sido": "서울특별시",
    "sigungu": "강남구"
  },
  {
    "name": "쏘카존 하이파킹 삼성동빌딩점",
    "address": "서울 강남구 삼성동 157-1 지하 7층 하부주차장",
    "road_address": "서울 강남구 삼성로 512",
    "lat": 37.50815738,
    "lng": 127.05673192,
    "sido": "서울특별시",
    "sigungu": "강남구"
  },
  {
    "name": "쏘카존 학동포스트빌",
    "address": "서울 강남구 논현동 208-5 지하 3층 전기차 충전구역",
    "road_address": "서울 강남구 학동로 212",
    "lat": 37.51407888,
    "lng": 127.03267773,
    "sido": "서울특별시",
    "sigungu": "강남구"
  },
  {
    "name": "쏘카존 학동포스트빌",
    "address": "서울 강남구 논현동 208-5 지하 3층",
    "road_address": "서울 강남구 학동로 212",
    "lat": 37.51397444,
    "lng": 127.03239151,
    "sido": "서울특별시",
    "sigungu": "강남구"
  },
  {
    "name": "쏘카존 학여울역 환승공영주차장",
    "address": "서울 강남구 대치동 514 지하 3층 4 전기차(완속) 충전구역",
    "road_address": "서울 강남구 남부순환로 3104",
    "lat": 37.49688165,
    "lng": 127.07255528,
    "sido": "서울특별시",
    "sigungu": "강남구"
  },
  {
    "name": "쏘카존 현대주차장",
    "address": "서울 강남구 역삼동 738-8 지상 1층",
    "road_address": "",
    "lat": 37.49907669,
    "lng": 127.03726144,
    "sido": "서울특별시",
    "sigungu": "강남구"
  },
  {
    "name": "쏘카존 현진블루빌 강남점 전용 주차장",
    "address": "서울 강남구 역삼동 785-3 지상 1층",
    "road_address": "서울 강남구 언주로63길 13",
    "lat": 37.49449499,
    "lng": 127.04523479,
    "sido": "서울특별시",
    "sigungu": "강남구"
  },
  {
    "name": "쏘카존 호텔더디자이너스 강남 프리미어(기계식)",
    "address": "서울 강남구 논현동 201-4 지상 1층 기계식 주차장",
    "road_address": "서울 강남구 봉은사로 113",
    "lat": 37.50526515,
    "lng": 127.02581226,
    "sido": "서울특별시",
    "sigungu": "강남구"
  },
  {
    "name": "쏘카존 2001아울렛 천호점",
    "address": "서울 강동구 천호동 563 지하 4층",
    "road_address": "서울 강동구 구천면로 189",
    "lat": 37.54136277,
    "lng": 127.12573229,
    "sido": "서울특별시",
    "sigungu": "강동구"
  },
  {
    "name": "쏘카존 CU 성내새빛점 주차장",
    "address": "서울 강동구 성내동 135-1 지상 1층 지정구역",
    "road_address": "서울 강동구 천호옛12길 18",
    "lat": 37.53477942,
    "lng": 127.12549608,
    "sido": "서울특별시",
    "sigungu": "강동구"
  },
  {
    "name": "쏘카존 GS더프레시 명일점",
    "address": "서울 강동구 명일동 312-99 지상 1층",
    "road_address": "서울 강동구 양재대로 1630",
    "lat": 37.5513819,
    "lng": 127.1445971,
    "sido": "서울특별시",
    "sigungu": "강동구"
  },
  {
    "name": "쏘카존 JDX골프웨어 주차장",
    "address": "서울 강동구 성내동 552-2 지상 1층",
    "road_address": "서울 강동구 성내로 18",
    "lat": 37.52974336,
    "lng": 127.12241378,
    "sido": "서울특별시",
    "sigungu": "강동구"
  },
  {
    "name": "쏘카존 KS한국고용정보 강동사옥",
    "address": "서울 강동구 고덕동 348-2 지하 4층 쏘카 지정 구역",
    "road_address": "서울 강동구 고덕비즈밸리로 38",
    "lat": 37.56633728,
    "lng": 127.15949461,
    "sido": "서울특별시",
    "sigungu": "강동구"
  },
  {
    "name": "쏘카존 SH 빌텍그린빌",
    "address": "서울 강동구 천호동 131-3 지상 1층 쏘카 주차구역",
    "road_address": "서울 강동구 천중로32길 13-5",
    "lat": 37.54154369,
    "lng": 127.13566057,
    "sido": "서울특별시",
    "sigungu": "강동구"
  },
  {
    "name": "쏘카존 [부름호출존] KECC 주차장",
    "address": "서울 강동구 상일동 501 지하 3층",
    "road_address": "서울 강동구 상일로10길 36",
    "lat": 37.55079698,
    "lng": 127.17410293,
    "sido": "서울특별시",
    "sigungu": "강동구"
  },
  {
    "name": "쏘카존 [부름호출존] 강일동공영주차장",
    "address": "서울 강동구 강일동 665-4 지상 1층",
    "road_address": "서울 강동구 아리수로91길 54",
    "lat": 37.56614414,
    "lng": 127.17254154,
    "sido": "서울특별시",
    "sigungu": "강동구"
  },
  {
    "name": "쏘카존 [부름호출존] 고분다리 전통시장 공영 주차장",
    "address": "서울 강동구 천호동 280-9 지상 1층",
    "road_address": "서울 강동구 구천면로 258-6",
    "lat": 37.54307844,
    "lng": 127.13217706,
    "sido": "서울특별시",
    "sigungu": "강동구"
  },
  {
    "name": "쏘카존 [부름호출존] 나이스파크 동서울오네뜨아파트",
    "address": "서울 강동구 길동 339-1 지하 1층",
    "road_address": "서울 강동구 양재대로124길 32",
    "lat": 37.54261275,
    "lng": 127.14364325,
    "sido": "서울특별시",
    "sigungu": "강동구"
  },
  {
    "name": "쏘카존 [부름호출존] 민속의집",
    "address": "서울 강동구 고덕동 215 지상 1층",
    "road_address": "서울 강동구 고덕로83길 55",
    "lat": 37.55980934,
    "lng": 127.16746327,
    "sido": "서울특별시",
    "sigungu": "강동구"
  },
  {
    "name": "쏘카존 [부름호출존] 일자산 제2체육관",
    "address": "서울 강동구 둔촌동 산 14-1 지상 1층",
    "road_address": "서울 강동구 동남로 620",
    "lat": 37.52944428,
    "lng": 127.14902014,
    "sido": "서울특별시",
    "sigungu": "강동구"
  },
  {
    "name": "쏘카존 [부름호출존] 일자산자연공원제1체육관",
    "address": "서울 강동구 둔촌동 산 140 지상 1층",
    "road_address": "서울 강동구 동남로 660",
    "lat": 37.53286793,
    "lng": 127.15056564,
    "sido": "서울특별시",
    "sigungu": "강동구"
  },
  {
    "name": "쏘카존 [부름호출존] 천호1동공영주차장",
    "address": "서울 강동구 천호동 221-3 지하 1층",
    "road_address": "서울 강동구 구천면로42길 60",
    "lat": 37.54487291,
    "lng": 127.13642249,
    "sido": "서울특별시",
    "sigungu": "강동구"
  },
  {
    "name": "쏘카존 [부름호출존] 천호3동공영주차장",
    "address": "서울 강동구 천호동 167-195 지하 1층",
    "road_address": "서울 강동구 진황도로29길 34",
    "lat": 37.53891823,
    "lng": 127.13324349,
    "sido": "서울특별시",
    "sigungu": "강동구"
  },
  {
    "name": "쏘카존 [부름호출존] 천호3동제2공영주차장",
    "address": "서울 강동구 천호동 174-1 지상 1층",
    "road_address": "서울 강동구 성안로31마길 1",
    "lat": 37.54071196,
    "lng": 127.13418584,
    "sido": "서울특별시",
    "sigungu": "강동구"
  },
  {
    "name": "쏘카존 [부름호출존] 천호유수지공영주차장",
    "address": "서울 강동구 천호동 329 지상 1층",
    "road_address": "",
    "lat": 37.54478881,
    "lng": 127.12187825,
    "sido": "서울특별시",
    "sigungu": "강동구"
  },
  {
    "name": "쏘카존 [부름호출존] 카카오 T 강동이스트센트럴타워 주차장",
    "address": "서울 강동구 천호동 571 지하 2층",
    "road_address": "서울 강동구 천호대로 1077",
    "lat": 37.53648489,
    "lng": 127.13221181,
    "sido": "서울특별시",
    "sigungu": "강동구"
  },
  {
    "name": "쏘카존 [부름호출존] 하이파킹 이안강동 주차장",
    "address": "서울 강동구 성내동 25-1 지하 3층",
    "road_address": "서울 강동구 천호대로162길 34",
    "lat": 37.53563895,
    "lng": 127.1280308,
    "sido": "서울특별시",
    "sigungu": "강동구"
  },
  {
    "name": "쏘카존 [부름호출존]고덕더몰 상가주차장",
    "address": "서울 강동구 고덕동 688",
    "road_address": "서울 강동구 아리수로50길 50",
    "lat": 37.55833388,
    "lng": 127.15116691,
    "sido": "서울특별시",
    "sigungu": "강동구"
  },
  {
    "name": "쏘카존 [부름호출존]나이스파크 강동 동부빌딩",
    "address": "서울 강동구 성내동 429-3",
    "road_address": "서울 강동구 양재대로 1335",
    "lat": 37.52557794,
    "lng": 127.13490311,
    "sido": "서울특별시",
    "sigungu": "강동구"
  },
  {
    "name": "쏘카존 [부름호출존]나이스파크 강동스퀘어100",
    "address": "서울 강동구 성내동 451-1",
    "road_address": "서울 강동구 강동대로 143-64",
    "lat": 37.52807864,
    "lng": 127.12033283,
    "sido": "서울특별시",
    "sigungu": "강동구"
  },
  {
    "name": "쏘카존 [부름호출존]하이파킹 힐스테이트암사상가",
    "address": "서울 강동구 암사동 675",
    "road_address": "서울 강동구 올림픽로91길 30",
    "lat": 37.54860407,
    "lng": 127.1257535,
    "sido": "서울특별시",
    "sigungu": "강동구"
  },
  {
    "name": "쏘카존 강동구청 제2청사",
    "address": "서울 강동구 성내동 540 지상 1층",
    "road_address": "서울 강동구 성내로 25",
    "lat": 37.52981742,
    "lng": 127.12482367,
    "sido": "서울특별시",
    "sigungu": "강동구"
  },
  {
    "name": "쏘카존 강동리엔파크 9단지",
    "address": "서울 강동구 상일동 산 77-23 지상 1층 901동 뒷편",
    "road_address": "서울 강동구 고덕로98길 29",
    "lat": 37.55734062,
    "lng": 127.18089514,
    "sido": "서울특별시",
    "sigungu": "강동구"
  },
  {
    "name": "쏘카존 강동성심병원 장례식장(기계식)",
    "address": "서울 강동구 길동 446 지상 1층 기계식 주차장",
    "road_address": "서울 강동구 진황도로 86",
    "lat": 37.53614569,
    "lng": 127.13576167,
    "sido": "서울특별시",
    "sigungu": "강동구"
  },
  {
    "name": "쏘카존 강일 골드프라자2",
    "address": "서울 강동구 상일동 554-51 지하 1층",
    "road_address": "서울 강동구 고덕로98길 85",
    "lat": 37.55457716,
    "lng": 127.1797805,
    "sido": "서울특별시",
    "sigungu": "강동구"
  },
  {
    "name": "쏘카존 강일리버파크 11단지 1103동 앞",
    "address": "서울 강동구 강일동 689 지상 1층 쏘카 주차구역",
    "road_address": "서울 강동구 고덕로97길 100",
    "lat": 37.56304883,
    "lng": 127.18004194,
    "sido": "서울특별시",
    "sigungu": "강동구"
  },
  {
    "name": "쏘카존 강일리버파크 2단지 202동, 203동 사이",
    "address": "서울 강동구 강일동 668 지상 1층 쏘카 주차구역",
    "road_address": "서울 강동구 아리수로97길 68",
    "lat": 37.56930997,
    "lng": 127.17697587,
    "sido": "서울특별시",
    "sigungu": "강동구"
  },
  {
    "name": "쏘카존 강일리버파크 3단지 주차장",
    "address": "서울 강동구 강일동 674 지하 1층 A39구역",
    "road_address": "서울 강동구 아리수로93길 40",
    "lat": 37.56678712,
    "lng": 127.17460196,
    "sido": "서울특별시",
    "sigungu": "강동구"
  },
  {
    "name": "쏘카존 강일리버파크 9단지 907동 앞",
    "address": "서울 강동구 강일동 699 지상 1층 쏘카 주차구역",
    "road_address": "서울 강동구 고덕로97길 29",
    "lat": 37.55955409,
    "lng": 127.1787116,
    "sido": "서울특별시",
    "sigungu": "강동구"
  },
  {
    "name": "쏘카존 강일타워",
    "address": "서울 강동구 강일동 675-1 지하 3층",
    "road_address": "서울 강동구 아리수로93길 27",
    "lat": 37.56569912,
    "lng": 127.17371881,
    "sido": "서울특별시",
    "sigungu": "강동구"
  },
  {
    "name": "쏘카존 고덕동514 나대지 주차장",
    "address": "서울 강동구 고덕동 514 지상 1층",
    "road_address": "",
    "lat": 37.5618607,
    "lng": 127.15645176,
    "sido": "서울특별시",
    "sigungu": "강동구"
  },
  {
    "name": "쏘카존 고덕센트럴푸르지오 메가스퀘어",
    "address": "서울 강동구 고덕동 210-1 지하 2층 G24~G27 기둥 인근",
    "road_address": "서울 강동구 고덕로 399",
    "lat": 37.5580103,
    "lng": 127.16918293,
    "sido": "서울특별시",
    "sigungu": "강동구"
  },
  {
    "name": "쏘카존 구일주택1차 가동",
    "address": "서울 강동구 길동 369-4 지상 1층",
    "road_address": "서울 강동구 천중로44길 16",
    "lat": 37.54025381,
    "lng": 127.13999189,
    "sido": "서울특별시",
    "sigungu": "강동구"
  },
  {
    "name": "쏘카존 대도빌딩 주차장",
    "address": "서울 강동구 암사동 502-19 지상 1층 쏘카 주차구역",
    "road_address": "서울 강동구 올림픽로 779",
    "lat": 37.55089696,
    "lng": 127.12757254,
    "sido": "서울특별시",
    "sigungu": "강동구"
  },
  {
    "name": "쏘카존 대정타워 주차장(기계식)",
    "address": "서울 강동구 길동 412-15 지상 1층 기계식 주차장",
    "road_address": "서울 강동구 양재대로 1463",
    "lat": 37.53660111,
    "lng": 127.13927451,
    "sido": "서울특별시",
    "sigungu": "강동구"
  },
  {
    "name": "쏘카존 리엔타운",
    "address": "서울 강동구 상일동 528 지상 1층 쏘카 주차구역",
    "road_address": "서울 강동구 상일로12길 89",
    "lat": 37.55649866,
    "lng": 127.17276149,
    "sido": "서울특별시",
    "sigungu": "강동구"
  },
  {
    "name": "쏘카존 명일메가타운",
    "address": "서울 강동구 명일동 325-11 지하 2층",
    "road_address": "서울 강동구 구천면로 424",
    "lat": 37.55034725,
    "lng": 127.14557851,
    "sido": "서울특별시",
    "sigungu": "강동구"
  },
  {
    "name": "쏘카존 명일씨티코아",
    "address": "서울 강동구 명일동 47-12 지하 4층",
    "road_address": "서울 강동구 동남로73길 26",
    "lat": 37.55326471,
    "lng": 127.15476227,
    "sido": "서울특별시",
    "sigungu": "강동구"
  },
  {
    "name": "쏘카존 밀라노카운티",
    "address": "서울 강동구 천호동 363-8 지상 1층",
    "road_address": "서울 강동구 천중로 64-12",
    "lat": 37.54447332,
    "lng": 127.12879727,
    "sido": "서울특별시",
    "sigungu": "강동구"
  },
  {
    "name": "쏘카존 백천이스트하임",
    "address": "서울 강동구 길동 366-1 지상 1층",
    "road_address": "서울 강동구 양재대로 1500",
    "lat": 37.53947507,
    "lng": 127.14098954,
    "sido": "서울특별시",
    "sigungu": "강동구"
  },
  {
    "name": "쏘카존 수연빌라 나동",
    "address": "서울 강동구 천호동 167-145 지상 1층 쏘카 전용 주차구역",
    "road_address": "서울 강동구 성안로27길 51-9",
    "lat": 37.53939211,
    "lng": 127.13328959,
    "sido": "서울특별시",
    "sigungu": "강동구"
  },
  {
    "name": "쏘카존 아이메디컬",
    "address": "서울 강동구 강일동 76-2 지하 2층",
    "road_address": "서울 강동구 아리수로93나길 38",
    "lat": 37.57187229,
    "lng": 127.17402406,
    "sido": "서울특별시",
    "sigungu": "강동구"
  },
  {
    "name": "쏘카존 아이비타워",
    "address": "서울 강동구 길동 366-4 지상 1층",
    "road_address": "서울 강동구 양재대로 1494",
    "lat": 37.53888125,
    "lng": 127.14103934,
    "sido": "서울특별시",
    "sigungu": "강동구"
  },
  {
    "name": "쏘카존 암사오피스텔",
    "address": "서울 강동구 천호동 287-2 지하 1층",
    "road_address": "서울 강동구 상암로 42",
    "lat": 37.54954877,
    "lng": 127.12785202,
    "sido": "서울특별시",
    "sigungu": "강동구"
  },
  {
    "name": "쏘카존 어바니엘 천호 (기계식)",
    "address": "서울 강동구 천호동 452-22 지상 1층 기계식 주차장",
    "road_address": "서울 강동구 천호대로161길 21",
    "lat": 37.53815829,
    "lng": 127.12873096,
    "sido": "서울특별시",
    "sigungu": "강동구"
  },
  {
    "name": "쏘카존 오스카상가 주차장",
    "address": "서울 강동구 성내동 428-5 지상 1층",
    "road_address": "서울 강동구 양재대로 1355",
    "lat": 37.52742439,
    "lng": 127.13542684,
    "sido": "서울특별시",
    "sigungu": "강동구"
  },
  {
    "name": "쏘카존 우리주차장",
    "address": "서울 강동구 명일동 324-14 지상 1층",
    "road_address": "서울 강동구 양재대로 1618",
    "lat": 37.54982802,
    "lng": 127.14431798,
    "sido": "서울특별시",
    "sigungu": "강동구"
  },
  {
    "name": "쏘카존 우진빌딩",
    "address": "서울 강동구 천호동 34-6 지상 1층",
    "road_address": "서울 강동구 상암로 183",
    "lat": 37.54640627,
    "lng": 127.14263888,
    "sido": "서울특별시",
    "sigungu": "강동구"
  },
  {
    "name": "쏘카존 중앙아파트",
    "address": "서울 강동구 성내동 513 지상 1층 쏘카 충전구역",
    "road_address": "서울 강동구 풍성로45길 18",
    "lat": 37.53142971,
    "lng": 127.13029426,
    "sido": "서울특별시",
    "sigungu": "강동구"
  },
  {
    "name": "쏘카존 천호공구타운빌딩",
    "address": "서울 강동구 천호동 339-27 지상 7층(옥상층)",
    "road_address": "서울 강동구 구천면로 161",
    "lat": 37.54205225,
    "lng": 127.1229578,
    "sido": "서울특별시",
    "sigungu": "강동구"
  },
  {
    "name": "쏘카존 천호두산위브센티움",
    "address": "서울 강동구 천호동 414 지하 5층",
    "road_address": "서울 강동구 올림픽로70길 61",
    "lat": 37.53941526,
    "lng": 127.12699629,
    "sido": "서울특별시",
    "sigungu": "강동구"
  },
  {
    "name": "쏘카존 천호역 공영주차장",
    "address": "서울 강동구 성내동 산 18-4 지하 2층 B56 인근 전기차(완속) 충전구역",
    "road_address": "",
    "lat": 37.53669766,
    "lng": 127.12965285,
    "sido": "서울특별시",
    "sigungu": "강동구"
  },
  {
    "name": "쏘카존 천호역 효성해링턴타워",
    "address": "서울 강동구 성내동 609 지하 2층 카셰어링 주차구역",
    "road_address": "서울 강동구 올림픽로 610",
    "lat": 37.53596126,
    "lng": 127.1231854,
    "sido": "서울특별시",
    "sigungu": "강동구"
  },
  {
    "name": "쏘카존 천호역한강청년주택(기계식)",
    "address": "서울 강동구 천호동 458-3 지상 1층 기계식 주차장",
    "road_address": "서울 강동구 천호대로 989",
    "lat": 37.53934177,
    "lng": 127.12236045,
    "sido": "서울특별시",
    "sigungu": "강동구"
  },
  {
    "name": "쏘카존 천호주차장",
    "address": "서울 강동구 천호동 225-14 지상 1층",
    "road_address": "서울 강동구 구천면로42길 41",
    "lat": 37.54559204,
    "lng": 127.13630386,
    "sido": "서울특별시",
    "sigungu": "강동구"
  },
  {
    "name": "쏘카존 쿠쿠강동빌딩",
    "address": "서울 강동구 고덕동 346-3 지하 2층",
    "road_address": "서울 강동구 고덕비즈밸리로 34",
    "lat": 37.56588722,
    "lng": 127.15983208,
    "sido": "서울특별시",
    "sigungu": "강동구"
  },
  {
    "name": "쏘카존 프린스주차장",
    "address": "서울 강동구 천호동 451-8 지상 1층",
    "road_address": "",
    "lat": 37.53699021,
    "lng": 127.12990227,
    "sido": "서울특별시",
    "sigungu": "강동구"
  },
  {
    "name": "쏘카존 한국전력공사 강동송파지사",
    "address": "서울 강동구 둔촌동 522-9 지상 1층",
    "road_address": "서울 강동구 양재대로 1318",
    "lat": 37.52384455,
    "lng": 127.1355663,
    "sido": "서울특별시",
    "sigungu": "강동구"
  },
  {
    "name": "쏘카존 홈플러스 강동점",
    "address": "서울 강동구 천호동 42 지하 4층 전기차 충전구역",
    "road_address": "서울 강동구 양재대로 1571",
    "lat": 37.54588681,
    "lng": 127.14229728,
    "sido": "서울특별시",
    "sigungu": "강동구"
  },
  {
    "name": "쏘카존 홈플러스 강동점",
    "address": "서울 강동구 천호동 42 지하 5층 25 구역 인근",
    "road_address": "서울 강동구 양재대로 1571",
    "lat": 37.54531484,
    "lng": 127.14216267,
    "sido": "서울특별시",
    "sigungu": "강동구"
  },
  {
    "name": "쏘카존 PH-101 주차장",
    "address": "서울 강북구 수유동 167-11 지상 1층",
    "road_address": "서울 강북구 도봉로101길 19-13",
    "lat": 37.64278411,
    "lng": 127.02913317,
    "sido": "서울특별시",
    "sigungu": "강북구"
  },
  {
    "name": "쏘카존 SH 청솔둥지 4차",
    "address": "서울 강북구 수유동 412-55 지상 1층 쏘카 주차구역",
    "road_address": "서울 강북구 삼양로91가길 12-8",
    "lat": 37.63653836,
    "lng": 127.01549213,
    "sido": "서울특별시",
    "sigungu": "강북구"
  },
  {
    "name": "쏘카존 SK북한산시티주상가",
    "address": "서울 강북구 미아동 1353-5 지상3층",
    "road_address": "서울 강북구 솔샘로 184",
    "lat": 37.61996864,
    "lng": 127.01279284,
    "sido": "서울특별시",
    "sigungu": "강북구"
  },
  {
    "name": "쏘카존 SK텔레콤 수유사옥",
    "address": "서울 강북구 미아동 194 지상 1층",
    "road_address": "서울 강북구 도봉로 238",
    "lat": 37.62987476,
    "lng": 127.02538742,
    "sido": "서울특별시",
    "sigungu": "강북구"
  },
  {
    "name": "쏘카존 [부름호출존] 가오리 공영주차장",
    "address": "서울 강북구 수유동 349-3",
    "road_address": "서울 강북구 삼양로107길 30",
    "lat": 37.64159475,
    "lng": 127.01500824,
    "sido": "서울특별시",
    "sigungu": "강북구"
  },
  {
    "name": "쏘카존 [부름호출존] 교육청길 노상공영주차장",
    "address": "서울 강북구 미아동 137-12 지상1층 노상공영 주차면",
    "road_address": "서울 강북구 도봉로20가길 6",
    "lat": 37.6188483,
    "lng": 127.02998467,
    "sido": "서울특별시",
    "sigungu": "강북구"
  },
  {
    "name": "쏘카존 [부름호출존] 수유마을시장 공영주차장",
    "address": "서울 강북구 수유동 55-29",
    "road_address": "서울 강북구 도봉로69길 29",
    "lat": 37.63057192,
    "lng": 127.02187349,
    "sido": "서울특별시",
    "sigungu": "강북구"
  },
  {
    "name": "쏘카존 [부름호출존] 어울림소공원 지하공영주차장",
    "address": "서울 강북구 미아동 4-1 지하",
    "road_address": "서울 강북구 오현로 지하 46",
    "lat": 37.61682133,
    "lng": 127.0355475,
    "sido": "서울특별시",
    "sigungu": "강북구"
  },
  {
    "name": "쏘카존 [부름호출존] 인수동 공영주차장",
    "address": "서울 강북구 수유동 126",
    "road_address": "서울 강북구 삼양로92길 34",
    "lat": 37.63606673,
    "lng": 127.01841052,
    "sido": "서울특별시",
    "sigungu": "강북구"
  },
  {
    "name": "쏘카존 [부름호출존] 카카오 T 덕신빌딩제1 민영 주차장",
    "address": "서울 강북구 미아동 42-11 지하 1층",
    "road_address": "서울 강북구 월계로 3",
    "lat": 37.60959855,
    "lng": 127.03076582,
    "sido": "서울특별시",
    "sigungu": "강북구"
  },
  {
    "name": "쏘카존 [부름호출존]아마노 강북창강빌딩",
    "address": "서울 강북구 번동 437-11",
    "road_address": "서울 강북구 덕릉로 138",
    "lat": 37.6348356,
    "lng": 127.0292105,
    "sido": "서울특별시",
    "sigungu": "강북구"
  },
  {
    "name": "쏘카존 대명주차장",
    "address": "서울 강북구 수유동 10-4 지상 1층",
    "road_address": "서울 강북구 노해로 25",
    "lat": 37.63797788,
    "lng": 127.02262909,
    "sido": "서울특별시",
    "sigungu": "강북구"
  },
  {
    "name": "쏘카존 대양주차장",
    "address": "서울 강북구 미아동 207-24 지상 1층",
    "road_address": "",
    "lat": 37.62715923,
    "lng": 127.02515427,
    "sido": "서울특별시",
    "sigungu": "강북구"
  },
  {
    "name": "쏘카존 더빅토리아웨딩파티",
    "address": "서울 강북구 미아동 42-8 지상 4층",
    "road_address": "서울 강북구 도봉로 16",
    "lat": 37.61078956,
    "lng": 127.03114006,
    "sido": "서울특별시",
    "sigungu": "강북구"
  },
  {
    "name": "쏘카존 두원프라자",
    "address": "서울 강북구 미아동 1351 지하 5층",
    "road_address": "서울 강북구 도봉로 157",
    "lat": 37.62284135,
    "lng": 127.02678738,
    "sido": "서울특별시",
    "sigungu": "강북구"
  },
  {
    "name": "쏘카존 롯데마트 삼양점",
    "address": "서울 강북구 미아동 1359 지상 4층",
    "road_address": "서울 강북구 삼양로 247",
    "lat": 37.62557485,
    "lng": 127.01771919,
    "sido": "서울특별시",
    "sigungu": "강북구"
  },
  {
    "name": "쏘카존 미아 우원빌딩 주차장",
    "address": "서울 강북구 미아동 209-8 지상",
    "road_address": "서울 강북구 도봉로53길 7",
    "lat": 37.62662309,
    "lng": 127.0254271,
    "sido": "서울특별시",
    "sigungu": "강북구"
  },
  {
    "name": "쏘카존 미아현대성우아파트 상가주차장",
    "address": "서울 강북구 미아동 561-2 지하1층",
    "road_address": "서울 강북구 삼양로24길 19",
    "lat": 37.61720393,
    "lng": 127.02210403,
    "sido": "서울특별시",
    "sigungu": "강북구"
  },
  {
    "name": "쏘카존 번동 에덴빌딩",
    "address": "서울 강북구 번동 112-1 지상1층 나대지주차장",
    "road_address": "서울 강북구 월계로 193",
    "lat": 37.62160769,
    "lng": 127.04517237,
    "sido": "서울특별시",
    "sigungu": "강북구"
  },
  {
    "name": "쏘카존 번동 햇살공영주차장",
    "address": "서울 강북구 번동 148-380 지상 4층",
    "road_address": "서울 강북구 오현로21길 84",
    "lat": 37.62490475,
    "lng": 127.03329484,
    "sido": "서울특별시",
    "sigungu": "강북구"
  },
  {
    "name": "쏘카존 북서울꿈의숲 동문주차장",
    "address": "서울 강북구 번동 90 지상 2층",
    "road_address": "서울 강북구 월계로 173",
    "lat": 37.62131873,
    "lng": 127.04449935,
    "sido": "서울특별시",
    "sigungu": "강북구"
  },
  {
    "name": "쏘카존 삼양사거리 주차장",
    "address": "서울 강북구 미아동 1346-6 지상 1층",
    "road_address": "",
    "lat": 37.61943059,
    "lng": 127.0203626,
    "sido": "서울특별시",
    "sigungu": "강북구"
  },
  {
    "name": "쏘카존 삼양상가 주차장(서정빌딩)",
    "address": "서울 강북구 미아동 777-18 지하 1층",
    "road_address": "서울 강북구 삼양로 241",
    "lat": 37.62503419,
    "lng": 127.01817331,
    "sido": "서울특별시",
    "sigungu": "강북구"
  },
  {
    "name": "쏘카존 수유 테마빌딩 (지하2층)",
    "address": "서울 강북구 번동 464-1 지하 2층",
    "road_address": "서울 강북구 도봉로 388",
    "lat": 37.64135593,
    "lng": 127.02962775,
    "sido": "서울특별시",
    "sigungu": "강북구"
  },
  {
    "name": "쏘카존 숭인주차장",
    "address": "서울 강북구 미아동 60-16 지상 1층",
    "road_address": "서울 강북구 도봉로 45",
    "lat": 37.61363979,
    "lng": 127.0295873,
    "sido": "서울특별시",
    "sigungu": "강북구"
  },
  {
    "name": "쏘카존 에피소드수유838",
    "address": "서울 강북구 수유동 740 지하 5층 12,13,14 제외한 모든 구역",
    "road_address": "서울 강북구 도봉로 315",
    "lat": 37.63693619,
    "lng": 127.02342072,
    "sido": "서울특별시",
    "sigungu": "강북구"
  },
  {
    "name": "쏘카존 한국전력공사 강북성북지사",
    "address": "서울 강북구 미아동 190-1 지하1층 한국전력 주차구역",
    "road_address": "서울 강북구 도봉로 242",
    "lat": 37.63056861,
    "lng": 127.0249447,
    "sido": "서울특별시",
    "sigungu": "강북구"
  },
  {
    "name": "쏘카존 KB국민은행 가양 주차장",
    "address": "서울 강서구 가양동 1479-11 지하 자주식",
    "road_address": "서울 강서구 양천로57길 5",
    "lat": 37.56330024,
    "lng": 126.85173191,
    "sido": "서울특별시",
    "sigungu": "강서구"
  },
  {
    "name": "쏘카존 K스퀘어 마곡",
    "address": "서울 강서구 마곡동 768-1 지하 7층",
    "road_address": "서울 강서구 마곡중앙로 105-7",
    "lat": 37.56278774,
    "lng": 126.82610346,
    "sido": "서울특별시",
    "sigungu": "강서구"
  },
  {
    "name": "쏘카존 [부름호출존] 가양 3동 공영주차장",
    "address": "서울 강서구 가양동 1488-12 지상 1층",
    "road_address": "",
    "lat": 37.5603386,
    "lng": 126.85978945,
    "sido": "서울특별시",
    "sigungu": "강서구"
  },
  {
    "name": "쏘카존 [부름호출존] 삼성디지털프라자 강서본점",
    "address": "서울 강서구 염창동 277-1 지상 1층",
    "road_address": "서울 강서구 공항대로 571",
    "lat": 37.5492879,
    "lng": 126.8692435,
    "sido": "서울특별시",
    "sigungu": "강서구"
  },
  {
    "name": "쏘카존 [부름호출존] 아마노 마곡NY타워",
    "address": "서울 강서구 마곡동 774-11 지하 2층",
    "road_address": "서울 강서구 마곡동로3길 6",
    "lat": 37.56008789,
    "lng": 126.83263797,
    "sido": "서울특별시",
    "sigungu": "강서구"
  },
  {
    "name": "쏘카존 [부름호출존] 아마노 마곡사이언스파크뷰",
    "address": "서울 강서구 마곡동 795-5 지하 2층",
    "road_address": "서울 강서구 마곡중앙6로 85",
    "lat": 37.5602524,
    "lng": 126.83687622,
    "sido": "서울특별시",
    "sigungu": "강서구"
  },
  {
    "name": "쏘카존 [부름호출존]Tmap주차 뉴서울상가",
    "address": "서울 강서구 내발산동 719-5",
    "road_address": "서울 강서구 강서로 271",
    "lat": 37.55009127,
    "lng": 126.83580406,
    "sido": "서울특별시",
    "sigungu": "강서구"
  },
  {
    "name": "쏘카존 [부름호출존]Tmap주차 드림앤드림",
    "address": "서울 강서구 화곡동 1024-9",
    "road_address": "서울 강서구 강서로 211",
    "lat": 37.54471507,
    "lng": 126.83713979,
    "sido": "서울특별시",
    "sigungu": "강서구"
  },
  {
    "name": "쏘카존 [부름호출존]Tmap주차 마곡테크노타워2",
    "address": "서울 강서구 마곡동 799-17",
    "road_address": "서울 강서구 마곡중앙2로 15",
    "lat": 37.55799211,
    "lng": 126.82881954,
    "sido": "서울특별시",
    "sigungu": "강서구"
  },
  {
    "name": "쏘카존 [부름호출존]나이스파크 강변샤르망 1단지",
    "address": "서울 강서구 등촌동 628-16",
    "road_address": "서울 강서구 양천로 520",
    "lat": 37.55956876,
    "lng": 126.85721606,
    "sido": "서울특별시",
    "sigungu": "강서구"
  },
  {
    "name": "쏘카존 [부름호출존]아마노 마곡보타닉파크타워3차",
    "address": "서울 강서구 마곡동 771-3",
    "road_address": "서울 강서구 마곡중앙6로 11",
    "lat": 37.56077844,
    "lng": 126.82913007,
    "sido": "서울특별시",
    "sigungu": "강서구"
  },
  {
    "name": "쏘카존 [부름호출존]아마노 신방화역힐스테이트",
    "address": "서울 강서구 방화동 908",
    "road_address": "서울 강서구 초원로16길 3-11",
    "lat": 37.56735379,
    "lng": 126.81529327,
    "sido": "서울특별시",
    "sigungu": "강서구"
  },
  {
    "name": "쏘카존 [부름호출존]힐스테이트동익오피스텔",
    "address": "서울 강서구 마곡동 773-3",
    "road_address": "서울 강서구 공항대로 195",
    "lat": 37.55999369,
    "lng": 126.82976454,
    "sido": "서울특별시",
    "sigungu": "강서구"
  },
  {
    "name": "쏘카존 가양 이스타빌1차 오피스텔",
    "address": "서울 강서구 가양동 1480-5 지하 1층",
    "road_address": "서울 강서구 양천로57길 10-20",
    "lat": 37.56276756,
    "lng": 126.85301874,
    "sido": "서울특별시",
    "sigungu": "강서구"
  },
  {
    "name": "쏘카존 강서가로공원 공영주차장",
    "address": "서울 강서구 화곡동 662-15 지하 2층",
    "road_address": "서울 강서구 가로공원로 지하 189",
    "lat": 37.53741486,
    "lng": 126.83888227,
    "sido": "서울특별시",
    "sigungu": "강서구"
  },
  {
    "name": "쏘카존 경연타운",
    "address": "서울 강서구 화곡동 400-76 지상 1층 쏘카 주차구역",
    "road_address": "서울 강서구 강서로27길 42",
    "lat": 37.53868269,
    "lng": 126.83963084,
    "sido": "서울특별시",
    "sigungu": "강서구"
  },
  {
    "name": "쏘카존 경향주차장(경복비즈니스고등학교)",
    "address": "서울 강서구 등촌동 131 지하 2층",
    "road_address": "서울 강서구 화곡로 375",
    "lat": 37.55801232,
    "lng": 126.85175823,
    "sido": "서울특별시",
    "sigungu": "강서구"
  },
  {
    "name": "쏘카존 골든서울호텔 주차장",
    "address": "서울 강서구 염창동 260-7 지하 1층",
    "road_address": "서울 강서구 공항대로 663",
    "lat": 37.5480461,
    "lng": 126.87829638,
    "sido": "서울특별시",
    "sigungu": "강서구"
  },
  {
    "name": "쏘카존 곰달래문화복지센터 공영주차장",
    "address": "서울 강서구 화곡동 890 지하 3층 23 전기차 충전구역",
    "road_address": "서울 강서구 강서로5길 50",
    "lat": 37.52919871,
    "lng": 126.84916455,
    "sido": "서울특별시",
    "sigungu": "강서구"
  },
  {
    "name": "쏘카존 곰달래문화복지센터 공영주차장",
    "address": "서울 강서구 화곡동 890 지하 3층 19번",
    "road_address": "서울 강서구 강서로5길 50",
    "lat": 37.52906293,
    "lng": 126.8486727,
    "sido": "서울특별시",
    "sigungu": "강서구"
  },
  {
    "name": "쏘카존 공항중학교 공영주차장",
    "address": "서울 강서구 공항동 12-3 지하 1층",
    "road_address": "서울 강서구 방화대로 241",
    "lat": 37.56279004,
    "lng": 126.81458695,
    "sido": "서울특별시",
    "sigungu": "강서구"
  },
  {
    "name": "쏘카존 관문주차장",
    "address": "서울 강서구 방화동 612-18 지상 1층",
    "road_address": "서울 강서구 개화동로29길 60",
    "lat": 37.56354544,
    "lng": 126.80972263,
    "sido": "서울특별시",
    "sigungu": "강서구"
  },
  {
    "name": "쏘카존 국제빌딩 옆 주차장",
    "address": "서울 강서구 공항동 22-54 지상 1층",
    "road_address": "",
    "lat": 37.56381058,
    "lng": 126.8115601,
    "sido": "서울특별시",
    "sigungu": "강서구"
  },
  {
    "name": "쏘카존 금부빌딩 주차장",
    "address": "서울 강서구 등촌동 73-1 지하 6층",
    "road_address": "서울 강서구 양천로 476",
    "lat": 37.56162741,
    "lng": 126.8534341,
    "sido": "서울특별시",
    "sigungu": "강서구"
  },
  {
    "name": "쏘카존 김포공항 국내선 제1주차장",
    "address": "서울 강서구 공항동 1373 지상 1층",
    "road_address": "서울 강서구 하늘길 111",
    "lat": 37.55992513,
    "lng": 126.80468515,
    "sido": "서울특별시",
    "sigungu": "강서구"
  },
  {
    "name": "쏘카존 김포공항 국제선터미널 쏘카존",
    "address": "서울 강서구 방화동 886 국제선 도착층 쏘카 주차구역",
    "road_address": "서울 강서구 하늘길 38",
    "lat": 37.56458458,
    "lng": 126.80008325,
    "sido": "서울특별시",
    "sigungu": "강서구"
  },
  {
    "name": "쏘카존 김포국제공항국제선",
    "address": "서울 강서구 방화동 886 1층",
    "road_address": "",
    "lat": 37.56570012,
    "lng": 126.80174754,
    "sido": "서울특별시",
    "sigungu": "강서구"
  },
  {
    "name": "쏘카존 나이스파크 강서 가양프라자",
    "address": "서울 강서구 가양동 1488 지하 1층",
    "road_address": "서울 강서구 허준로 198",
    "lat": 37.56125275,
    "lng": 126.86024952,
    "sido": "서울특별시",
    "sigungu": "강서구"
  },
  {
    "name": "쏘카존 내발산동 공공기숙사",
    "address": "서울 강서구 내발산동 740 지상 1층 쏘카 주차구역",
    "road_address": "서울 강서구 수명로1길 131",
    "lat": 37.55407458,
    "lng": 126.82513346,
    "sido": "서울특별시",
    "sigungu": "강서구"
  },
  {
    "name": "쏘카존 넥시티오피스텔",
    "address": "서울 강서구 화곡동 981-5 기계식주차장 (반납시 문닫힘 확인필요)",
    "road_address": "서울 강서구 화곡로 286-5",
    "lat": 37.54993273,
    "lng": 126.84863617,
    "sido": "서울특별시",
    "sigungu": "강서구"
  },
  {
    "name": "쏘카존 더숨153 101동",
    "address": "서울 강서구 화곡동 1169 지상 1층",
    "road_address": "서울 강서구 초록마을로34길 55",
    "lat": 37.53797459,
    "lng": 126.84509396,
    "sido": "서울특별시",
    "sigungu": "강서구"
  },
  {
    "name": "쏘카존 등촌아이파크아파트 109동",
    "address": "서울 강서구 등촌동 715 지하 2층 A60 지정주차면 (누수 발생시, 옆 주차면에 주차)",
    "road_address": "서울 강서구 등촌로 163",
    "lat": 37.54414435,
    "lng": 126.86078614,
    "sido": "서울특별시",
    "sigungu": "강서구"
  },
  {
    "name": "쏘카존 등촌역 아임2030",
    "address": "서울 강서구 등촌동 648-5 지하 2층",
    "road_address": "서울 강서구 공항대로59가길 14",
    "lat": 37.55174327,
    "lng": 126.86458236,
    "sido": "서울특별시",
    "sigungu": "강서구"
  },
  {
    "name": "쏘카존 롯데슈퍼 개화산점",
    "address": "서울 강서구 방화동 533-9 지상 1층",
    "road_address": "서울 강서구 양천로6길 15",
    "lat": 37.57199804,
    "lng": 126.80772695,
    "sido": "서울특별시",
    "sigungu": "강서구"
  },
  {
    "name": "쏘카존 르웨스트시티타워 주차장",
    "address": "서울 강서구 마곡동 767 지하 6층",
    "road_address": "서울 강서구 마곡중앙로 143",
    "lat": 37.56551718,
    "lng": 126.82571228,
    "sido": "서울특별시",
    "sigungu": "강서구"
  },
  {
    "name": "쏘카존 마곡 인터시티 서울호텔",
    "address": "서울 강서구 마곡동 797-11 지하 4층",
    "road_address": "서울 강서구 마곡중앙6로 76-3",
    "lat": 37.55977071,
    "lng": 126.8358213,
    "sido": "서울특별시",
    "sigungu": "강서구"
  },
  {
    "name": "쏘카존 마곡595빌딩",
    "address": "서울 강서구 마곡동 798-10 지하3층",
    "road_address": "서울 강서구 마곡중앙로 59-5",
    "lat": 37.55880062,
    "lng": 126.82595315,
    "sido": "서울특별시",
    "sigungu": "강서구"
  },
  {
    "name": "쏘카존 마곡럭스나인오피스텔 N동",
    "address": "서울 강서구 마곡동 758-4 지하 2층",
    "road_address": "서울 강서구 마곡중앙5로1길 21",
    "lat": 37.56889666,
    "lng": 126.82621943,
    "sido": "서울특별시",
    "sigungu": "강서구"
  },
  {
    "name": "쏘카존 마곡보타닉게이트",
    "address": "서울 강서구 마곡동 779 지하 4층",
    "road_address": "서울 강서구 마곡동로 166",
    "lat": 37.56905508,
    "lng": 126.83684344,
    "sido": "서울특별시",
    "sigungu": "강서구"
  },
  {
    "name": "쏘카존 마곡아이파크디어반",
    "address": "서울 강서구 마곡동 783 지하 4층",
    "road_address": "서울 강서구 마곡중앙8로7길 57",
    "lat": 37.56649293,
    "lng": 126.83901774,
    "sido": "서울특별시",
    "sigungu": "강서구"
  },
  {
    "name": "쏘카존 마곡엠밸리11단지상가",
    "address": "서울 강서구 마곡동 746 지하 1층 지하1층 내려간 후 오른편 상가 주차장",
    "road_address": "서울 강서구 공항대로 124",
    "lat": 37.55952501,
    "lng": 126.82112323,
    "sido": "서울특별시",
    "sigungu": "강서구"
  },
  {
    "name": "쏘카존 마곡엠밸리1단지",
    "address": "서울 강서구 마곡동 734 지하 2층 21번 전기차 충전구역",
    "road_address": "서울 강서구 마곡서1로 131",
    "lat": 37.56799359,
    "lng": 126.81884706,
    "sido": "서울특별시",
    "sigungu": "강서구"
  },
  {
    "name": "쏘카존 마크원강서",
    "address": "서울 강서구 화곡동 899-5 기계식 주차장 (반납시 문닫힘 확인 필요)",
    "road_address": "서울 강서구 곰달래로24길 16",
    "lat": 37.52987424,
    "lng": 126.84689371,
    "sido": "서울특별시",
    "sigungu": "강서구"
  },
  {
    "name": "쏘카존 메이필드호텔 P1주차장",
    "address": "서울 강서구 외발산동 426 지상 1층",
    "road_address": "서울 강서구 방화대로 94",
    "lat": 37.54662884,
    "lng": 126.81746391,
    "sido": "서울특별시",
    "sigungu": "강서구"
  },
  {
    "name": "쏘카존 명신주차장",
    "address": "서울 강서구 화곡동 157-1 지상 1층",
    "road_address": "서울 강서구 강서로18길 92-29",
    "lat": 37.53422774,
    "lng": 126.85101786,
    "sido": "서울특별시",
    "sigungu": "강서구"
  },
  {
    "name": "쏘카존 모앤도빌",
    "address": "서울 강서구 화곡동 1075-10 지상 1층 쏘카 주차구역",
    "road_address": "서울 강서구 강서로 161-5",
    "lat": 37.54102534,
    "lng": 126.84033868,
    "sido": "서울특별시",
    "sigungu": "강서구"
  },
  {
    "name": "쏘카존 발쿠치네하우스",
    "address": "서울 강서구 공항동 1378 지하 2층",
    "road_address": "서울 강서구 송정로 53",
    "lat": 37.55964269,
    "lng": 126.80994307,
    "sido": "서울특별시",
    "sigungu": "강서구"
  },
  {
    "name": "쏘카존 방화동성아파트 주차장",
    "address": "서울 강서구 방화동 817 지하 1층 189-190 쏘카 주차구역",
    "road_address": "서울 강서구 금낭화로23길 8",
    "lat": 37.57954022,
    "lng": 126.81218047,
    "sido": "서울특별시",
    "sigungu": "강서구"
  },
  {
    "name": "쏘카존 방화역(동) 공영주차장",
    "address": "서울 강서구 방화동 830-4 지상 1층",
    "road_address": "",
    "lat": 37.57725075,
    "lng": 126.81328546,
    "sido": "서울특별시",
    "sigungu": "강서구"
  },
  {
    "name": "쏘카존 방화역(서) 공영주차장",
    "address": "서울 강서구 방화동 829-1 지상 1층",
    "road_address": "",
    "lat": 37.57757245,
    "lng": 126.81217749,
    "sido": "서울특별시",
    "sigungu": "강서구"
  },
  {
    "name": "쏘카존 볏골공원 공영주차장",
    "address": "서울 강서구 화곡동 98-86 지하 1층",
    "road_address": "서울 강서구 까치산로4길 21",
    "lat": 37.54156894,
    "lng": 126.84461242,
    "sido": "서울특별시",
    "sigungu": "강서구"
  },
  {
    "name": "쏘카존 브릴리언트화곡",
    "address": "서울 강서구 화곡동 905-11 지상 1층 기계식 주차장",
    "road_address": "서울 강서구 강서로5가길 37-5",
    "lat": 37.52874329,
    "lng": 126.84604979,
    "sido": "서울특별시",
    "sigungu": "강서구"
  },
  {
    "name": "쏘카존 센터스퀘어 주차장",
    "address": "서울 강서구 염창동 312 지하 4층 5번 블록",
    "road_address": "서울 강서구 공항대로 543",
    "lat": 37.55072358,
    "lng": 126.86636997,
    "sido": "서울특별시",
    "sigungu": "강서구"
  },
  {
    "name": "쏘카존 센터스퀘어발산",
    "address": "서울 강서구 내발산동 767 지하 4층",
    "road_address": "서울 강서구 공항대로 302",
    "lat": 37.55791211,
    "lng": 126.84120694,
    "sido": "서울특별시",
    "sigungu": "강서구"
  },
  {
    "name": "쏘카존 센터스퀘어발산",
    "address": "서울 강서구 내발산동 647-1 지하 1층 전기차 충전구역",
    "road_address": "",
    "lat": 37.55779561,
    "lng": 126.84167687,
    "sido": "서울특별시",
    "sigungu": "강서구"
  },
  {
    "name": "쏘카존 엠코지니어스타오피스텔 주차장",
    "address": "서울 강서구 마곡동 776-4 지하 4층",
    "road_address": "서울 강서구 강서로 471",
    "lat": 37.56765085,
    "lng": 126.84044826,
    "sido": "서울특별시",
    "sigungu": "강서구"
  },
  {
    "name": "쏘카존 연이당 주차장",
    "address": "서울 강서구 마곡동 1535 지상 1층",
    "road_address": "",
    "lat": 37.5714301,
    "lng": 126.82248369,
    "sido": "서울특별시",
    "sigungu": "강서구"
  },
  {
    "name": "쏘카존 염창 하우스B오피스텔 (기계식)",
    "address": "서울 강서구 염창동 282-24 지하 1층 기계식",
    "road_address": "서울 강서구 공항대로 625",
    "lat": 37.54733276,
    "lng": 126.87423845,
    "sido": "서울특별시",
    "sigungu": "강서구"
  },
  {
    "name": "쏘카존 영보빌딩 공영주차장",
    "address": "서울 강서구 가양동 1480 지상 1층",
    "road_address": "서울 강서구 양천로57길 16",
    "lat": 37.56337416,
    "lng": 126.85248445,
    "sido": "서울특별시",
    "sigungu": "강서구"
  },
  {
    "name": "쏘카존 우장산 주차장",
    "address": "서울 강서구 화곡동 995-3 지상 1층",
    "road_address": "서울 강서구 화곡로53길 18",
    "lat": 37.55161687,
    "lng": 126.84807598,
    "sido": "서울특별시",
    "sigungu": "강서구"
  },
  {
    "name": "쏘카존 우장산역 해링턴타워 주차장",
    "address": "서울 강서구 화곡동 1170 지하 3층 17 쏘카 주차구역",
    "road_address": "",
    "lat": 37.54626314,
    "lng": 126.83595164,
    "sido": "서울특별시",
    "sigungu": "강서구"
  },
  {
    "name": "쏘카존 우장주차장",
    "address": "서울 강서구 화곡동 1112-10 지상 1층",
    "road_address": "",
    "lat": 37.5536874,
    "lng": 126.85236321,
    "sido": "서울특별시",
    "sigungu": "강서구"
  },
  {
    "name": "쏘카존 웨스트엔드 3차",
    "address": "서울 강서구 내발산동 750-10 지하 4층 전기차 충전구역",
    "road_address": "서울 강서구 수명로 68-35",
    "lat": 37.55285068,
    "lng": 126.8267354,
    "sido": "서울특별시",
    "sigungu": "강서구"
  },
  {
    "name": "쏘카존 유림트윈파크오피스텔 주차장",
    "address": "서울 강서구 마곡동 793 지하 1층",
    "road_address": "서울 강서구 강서로 419",
    "lat": 37.56298472,
    "lng": 126.83920865,
    "sido": "서울특별시",
    "sigungu": "강서구"
  },
  {
    "name": "쏘카존 이대서울병원 주차장",
    "address": "서울 강서구 마곡동 808 지하 4층 A02-15 쏘카 주차구역",
    "road_address": "서울 강서구 공항대로 260",
    "lat": 37.5576564,
    "lng": 126.83670645,
    "sido": "서울특별시",
    "sigungu": "강서구"
  },
  {
    "name": "쏘카존 제일주차장",
    "address": "서울 강서구 공항동 36-12 지상 1층",
    "road_address": "",
    "lat": 37.55987472,
    "lng": 126.81306512,
    "sido": "서울특별시",
    "sigungu": "강서구"
  },
  {
    "name": "쏘카존 포르투나블루(기계식)",
    "address": "서울 강서구 화곡동 1073-11 지상 1층 기계식 주차장",
    "road_address": "서울 강서구 화곡로 146",
    "lat": 37.54068962,
    "lng": 126.83794852,
    "sido": "서울특별시",
    "sigungu": "강서구"
  },
  {
    "name": "쏘카존 포엠빌등촌",
    "address": "서울 강서구 등촌동 664 지상 1층 기계식 주차장",
    "road_address": "서울 강서구 화곡로61길 131",
    "lat": 37.55840031,
    "lng": 126.84517052,
    "sido": "서울특별시",
    "sigungu": "강서구"
  },
  {
    "name": "쏘카존 필네이처 오피스텔",
    "address": "서울 강서구 마곡동 795-1 지하 4층",
    "road_address": "서울 강서구 마곡중앙8로 86",
    "lat": 37.56063811,
    "lng": 126.83693649,
    "sido": "서울특별시",
    "sigungu": "강서구"
  },
  {
    "name": "쏘카존 하이파킹 마곡메가타워",
    "address": "서울 강서구 마곡동 798-9 지하 4층 전기차 충전구역",
    "road_address": "서울 강서구 마곡중앙로 59-9",
    "lat": 37.55883526,
    "lng": 126.82561919,
    "sido": "서울특별시",
    "sigungu": "강서구"
  },
  {
    "name": "쏘카존 한국공항공사 서울지역본부 직원주차장",
    "address": "서울 강서구 과해동 676 지상 1층 C-3 쏘카 주차구역",
    "road_address": "서울 강서구 하늘길 111",
    "lat": 37.56197913,
    "lng": 126.79915645,
    "sido": "서울특별시",
    "sigungu": "강서구"
  },
  {
    "name": "쏘카존 화곡 본-1 공영주차장",
    "address": "서울 강서구 화곡동 56-127 옥상층 쏘카 주차구역",
    "road_address": "서울 강서구 초록마을로26길 48",
    "lat": 37.53968618,
    "lng": 126.84973747,
    "sido": "서울특별시",
    "sigungu": "강서구"
  },
  {
    "name": "쏘카존 화곡3-1 공영주차장",
    "address": "서울 강서구 화곡동 1045 옥상층 쏘카 주차구역",
    "road_address": "서울 강서구 화곡로15길 40",
    "lat": 37.54169069,
    "lng": 126.83473961,
    "sido": "서울특별시",
    "sigungu": "강서구"
  },
  {
    "name": "쏘카존 화일주차장",
    "address": "서울 강서구 화곡동 61-184 지하 2층",
    "road_address": "서울 강서구 까치산로10길 70",
    "lat": 37.54102291,
    "lng": 126.8473586,
    "sido": "서울특별시",
    "sigungu": "강서구"
  },
  {
    "name": "쏘카존 힐스테이트에코마곡나루역 오피스텔",
    "address": "서울 강서구 마곡동 760-1 지하 2층 03 전기차 충전구역",
    "road_address": "서울 강서구 마곡중앙로 161-11",
    "lat": 37.56795181,
    "lng": 126.82703095,
    "sido": "서울특별시",
    "sigungu": "강서구"
  },
  {
    "name": "쏘카존 CU 서울대파인점",
    "address": "서울 관악구 봉천동 882-1 지상 1층",
    "road_address": "서울 관악구 청룡1길 46",
    "lat": 37.48098559,
    "lng": 126.94889645,
    "sido": "서울특별시",
    "sigungu": "관악구"
  },
  {
    "name": "쏘카존 JW타워 (기계식)",
    "address": "서울 관악구 봉천동 1687-13 지상 1층 기계식 주차",
    "road_address": "서울 관악구 남부순환로 1933",
    "lat": 37.47710785,
    "lng": 126.96414909,
    "sido": "서울특별시",
    "sigungu": "관악구"
  },
  {
    "name": "쏘카존 Q타워 (기계식)",
    "address": "서울 관악구 봉천동 861-6 기계식 주차장 오른쪽",
    "road_address": "서울 관악구 남부순환로 1817",
    "lat": 37.48156634,
    "lng": 126.95224947,
    "sido": "서울특별시",
    "sigungu": "관악구"
  },
  {
    "name": "쏘카존 SH 성지하우스",
    "address": "서울 관악구 신림동 626-11 지상 1층 쏘카 주차구역",
    "road_address": "서울 관악구 난곡로34길 45",
    "lat": 37.47216507,
    "lng": 126.92160823,
    "sido": "서울특별시",
    "sigungu": "관악구"
  },
  {
    "name": "쏘카존 SK보라매사옥 주차장",
    "address": "서울 관악구 봉천동 729-1 지하 3층 고객 주차구역",
    "road_address": "서울 관악구 보라매로5길 1",
    "lat": 37.49176202,
    "lng": 126.92581005,
    "sido": "서울특별시",
    "sigungu": "관악구"
  },
  {
    "name": "쏘카존 [부름호출존] 관악 구민종합체육센터 주차장",
    "address": "서울 관악구 봉천동 225 지상 1층",
    "road_address": "서울 관악구 낙성대로3길 37",
    "lat": 37.4730674,
    "lng": 126.96031414,
    "sido": "서울특별시",
    "sigungu": "관악구"
  },
  {
    "name": "쏘카존 [부름호출존] 관악초 공영주차장",
    "address": "서울 관악구 봉천동 920 지하 2층",
    "road_address": "서울 관악구 청룡4길 49",
    "lat": 37.48093639,
    "lng": 126.94373525,
    "sido": "서울특별시",
    "sigungu": "관악구"
  },
  {
    "name": "쏘카존 [부름호출존] 나이스파크 성대빌딩 주차장",
    "address": "서울 관악구 남현동 1059-16 지상 1층",
    "road_address": "서울 관악구 남부순환로 2074",
    "lat": 37.4761807,
    "lng": 126.97910202,
    "sido": "서울특별시",
    "sigungu": "관악구"
  },
  {
    "name": "쏘카존 [부름호출존] 난곡동제1공영주차장",
    "address": "서울 관악구 신림동 626-82 지상 3층",
    "road_address": "서울 관악구 난곡로34길 71",
    "lat": 37.47219408,
    "lng": 126.92324965,
    "sido": "서울특별시",
    "sigungu": "관악구"
  },
  {
    "name": "쏘카존 [부름호출존] 남부초등학교공영주차장",
    "address": "서울 관악구 신림동 467 지하 2층",
    "road_address": "서울 관악구 남부순환로163길 14",
    "lat": 37.48490582,
    "lng": 126.9223389,
    "sido": "서울특별시",
    "sigungu": "관악구"
  },
  {
    "name": "쏘카존 [부름호출존] 원신공영주차장",
    "address": "서울 관악구 신림동 366 지상 2층",
    "road_address": "서울 관악구 양지길 63",
    "lat": 37.47004161,
    "lng": 126.92909625,
    "sido": "서울특별시",
    "sigungu": "관악구"
  },
  {
    "name": "쏘카존 [부름호출존] 조원동 제1공영주차장",
    "address": "서울 관악구 신림동 571-6 지상 2층",
    "road_address": "서울 관악구 조원중앙로2길 19",
    "lat": 37.48105903,
    "lng": 126.90571725,
    "sido": "서울특별시",
    "sigungu": "관악구"
  },
  {
    "name": "쏘카존 [부름호출존] 카카오 T 관악 주차장",
    "address": "서울 관악구 봉천동 1567-1 지상 1층",
    "road_address": "서울 관악구 쑥고개로 111",
    "lat": 37.47924224,
    "lng": 126.94913845,
    "sido": "서울특별시",
    "sigungu": "관악구"
  },
  {
    "name": "쏘카존 거주자우선주차구역 21-102-1",
    "address": "서울 관악구 신림동 1661-5 지상 1층",
    "road_address": "서울 관악구 시흥대로166길 24",
    "lat": 37.48231727,
    "lng": 126.90291624,
    "sido": "서울특별시",
    "sigungu": "관악구"
  },
  {
    "name": "쏘카존 거주자우선주차구역 22-3-5",
    "address": "서울 관악구 신림동 222 지상 1층 22-3-5",
    "road_address": "서울 관악구 신림로 41",
    "lat": 37.46955808,
    "lng": 126.94299204,
    "sido": "서울특별시",
    "sigungu": "관악구"
  },
  {
    "name": "쏘카존 거주자우선주차구역 3-1-1",
    "address": "서울 관악구 봉천동 1004 지상 1층",
    "road_address": "서울 관악구 청림3길 81",
    "lat": 37.49168725,
    "lng": 126.95916447,
    "sido": "서울특별시",
    "sigungu": "관악구"
  },
  {
    "name": "쏘카존 거주자우선주차구역(12-35-2)",
    "address": "서울 관악구 남현동 496-2 지상 1층 구획번호 12-35-2구역",
    "road_address": "서울 관악구 남부순환로260길 132",
    "lat": 37.47118768,
    "lng": 126.97222907,
    "sido": "서울특별시",
    "sigungu": "관악구"
  },
  {
    "name": "쏘카존 거주자우선주차구역(12-39-10)",
    "address": "서울 관악구 남현동 1132 지상 1층 구획번호 12-39-10구역",
    "road_address": "서울 관악구 남현길 144",
    "lat": 37.47096624,
    "lng": 126.97309848,
    "sido": "서울특별시",
    "sigungu": "관악구"
  },
  {
    "name": "쏘카존 거주자우선주차구역(21-110-14)",
    "address": "서울 관악구 신림동 1657-59 지상 1층 구획번호 21-110-14",
    "road_address": "서울 관악구 시흥대로166길 59",
    "lat": 37.48084394,
    "lng": 126.90378532,
    "sido": "서울특별시",
    "sigungu": "관악구"
  },
  {
    "name": "쏘카존 거주자우선주차장(21-127-11)",
    "address": "서울 관악구 신림동 1657-44 지상 1층 쏘카 주차구역(21-127-11)",
    "road_address": "서울 관악구 조원로6길 43",
    "lat": 37.48190805,
    "lng": 126.90381222,
    "sido": "서울특별시",
    "sigungu": "관악구"
  },
  {
    "name": "쏘카존 견인보관소 공영주차장",
    "address": "서울 관악구 신림동 1677-4 지상 1층",
    "road_address": "서울 관악구 신사로 7",
    "lat": 37.48463375,
    "lng": 126.90399189,
    "sido": "서울특별시",
    "sigungu": "관악구"
  },
  {
    "name": "쏘카존 관동마운틴A",
    "address": "서울 관악구 봉천동 1611-4 지상 1층 빌라 옆 주차장",
    "road_address": "서울 관악구 관악로16길 48-6",
    "lat": 37.47945821,
    "lng": 126.95513267,
    "sido": "서울특별시",
    "sigungu": "관악구"
  },
  {
    "name": "쏘카존 관악문화관도서관 지하주차장",
    "address": "서울 관악구 신림동 209-1 지하1층",
    "road_address": "서울 관악구 신림로3길 35",
    "lat": 37.46801009,
    "lng": 126.94477814,
    "sido": "서울특별시",
    "sigungu": "관악구"
  },
  {
    "name": "쏘카존 관악위버폴리스",
    "address": "서울 관악구 봉천동 859-17 지하 6층",
    "road_address": "서울 관악구 관악로 191-2",
    "lat": 37.48250011,
    "lng": 126.95305954,
    "sido": "서울특별시",
    "sigungu": "관악구"
  },
  {
    "name": "쏘카존 난우중 공영주차장",
    "address": "서울 관악구 신림동 652-156 지상 1층",
    "road_address": "서울 관악구 난곡로16길 32",
    "lat": 37.46654145,
    "lng": 126.92234773,
    "sido": "서울특별시",
    "sigungu": "관악구"
  },
  {
    "name": "쏘카존 담은빌",
    "address": "서울 관악구 봉천동 1648-18 지상 1층 1번 주차면 레이 / 2번 주차면 모닝",
    "road_address": "서울 관악구 인헌1다길 38",
    "lat": 37.47299379,
    "lng": 126.97049988,
    "sido": "서울특별시",
    "sigungu": "관악구"
  },
  {
    "name": "쏘카존 대교타워 주차장",
    "address": "서울 관악구 봉천동 729-21 지하 2층 쏘카 주차구역",
    "road_address": "서울 관악구 보라매로3길 23",
    "lat": 37.49101043,
    "lng": 126.92558465,
    "sido": "서울특별시",
    "sigungu": "관악구"
  },
  {
    "name": "쏘카존 대연유료주차장",
    "address": "서울 관악구 봉천동 869-13 지상 1층",
    "road_address": "서울 관악구 남부순환로 1814",
    "lat": 37.48096508,
    "lng": 126.95155792,
    "sido": "서울특별시",
    "sigungu": "관악구"
  },
  {
    "name": "쏘카존 대우디오슈페리움 2단지",
    "address": "서울 관악구 봉천동 856-1 지하 2층",
    "road_address": "서울 관악구 관악로 168",
    "lat": 37.48006832,
    "lng": 126.95315377,
    "sido": "서울특별시",
    "sigungu": "관악구"
  },
  {
    "name": "쏘카존 더품오피스텔(기계식)",
    "address": "서울 관악구 봉천동 896-20 지상 1층 기계식 주차",
    "road_address": "서울 관악구 청룡5길 17-3",
    "lat": 37.4802829,
    "lng": 126.94707553,
    "sido": "서울특별시",
    "sigungu": "관악구"
  },
  {
    "name": "쏘카존 동거동락 신림점",
    "address": "서울 관악구 신림동 1532-24 지상 1층",
    "road_address": "서울 관악구 호암로24가길 10",
    "lat": 37.4693813,
    "lng": 126.93399505,
    "sido": "서울특별시",
    "sigungu": "관악구"
  },
  {
    "name": "쏘카존 라온아뜨",
    "address": "서울 관악구 봉천동 1609-25 지상 1층 쏘카 주차구역",
    "road_address": "서울 관악구 관악로10길 31-20",
    "lat": 37.47737502,
    "lng": 126.95499373,
    "sido": "서울특별시",
    "sigungu": "관악구"
  },
  {
    "name": "쏘카존 롯데 하이마트 봉천점",
    "address": "서울 관악구 봉천동 883-12 지상 1층 고객 전용주차장",
    "road_address": "서울 관악구 남부순환로 1780",
    "lat": 37.48145638,
    "lng": 126.94791136,
    "sido": "서울특별시",
    "sigungu": "관악구"
  },
  {
    "name": "쏘카존 롯데백화점 관악점",
    "address": "서울 관악구 봉천동 729-22 지하 4층 405번 쏘카 주차구역",
    "road_address": "서울 관악구 봉천로 209",
    "lat": 37.49040729,
    "lng": 126.92499499,
    "sido": "서울특별시",
    "sigungu": "관악구"
  },
  {
    "name": "쏘카존 르네상스쇼핑몰",
    "address": "서울 관악구 신림동 1422-5 지하 5층",
    "road_address": "서울 관악구 신림로 340",
    "lat": 37.48485929,
    "lng": 126.93007045,
    "sido": "서울특별시",
    "sigungu": "관악구"
  },
  {
    "name": "쏘카존 리마크빌 관악",
    "address": "서울 관악구 봉천동 880-41 지하 1층",
    "road_address": "서울 관악구 남부순환로216길 24",
    "lat": 37.48035663,
    "lng": 126.94877477,
    "sido": "서울특별시",
    "sigungu": "관악구"
  },
  {
    "name": "쏘카존 미성동제4공영주차장",
    "address": "서울 관악구 신림동 597-145 지상 1.5층",
    "road_address": "서울 관악구 난우10가길 2",
    "lat": 37.47613064,
    "lng": 126.91927292,
    "sido": "서울특별시",
    "sigungu": "관악구"
  },
  {
    "name": "쏘카존 베리타스오피스텔",
    "address": "서울 관악구 신림동 107-100 지상 1층",
    "road_address": "서울 관악구 신림로 196",
    "lat": 37.47487541,
    "lng": 126.93681877,
    "sido": "서울특별시",
    "sigungu": "관악구"
  },
  {
    "name": "쏘카존 보라매샤르망",
    "address": "서울 관악구 봉천동 972-5 지하 2층 기계식 주차장",
    "road_address": "서울 관악구 봉천로 227",
    "lat": 37.49013022,
    "lng": 126.92714369,
    "sido": "서울특별시",
    "sigungu": "관악구"
  },
  {
    "name": "쏘카존 보라매제1공영주차장",
    "address": "서울 관악구 봉천동 산 110-4 지상 1층 나눔카 주차구역",
    "road_address": "서울 관악구 봉천로21길 38",
    "lat": 37.48865138,
    "lng": 126.93434897,
    "sido": "서울특별시",
    "sigungu": "관악구"
  },
  {
    "name": "쏘카존 봉일프라자",
    "address": "서울 관악구 봉천동 951-25 지하 3층",
    "road_address": "서울 관악구 은천로 28",
    "lat": 37.48570017,
    "lng": 126.93861196,
    "sido": "서울특별시",
    "sigungu": "관악구"
  },
  {
    "name": "쏘카존 봉천동 유료주차장",
    "address": "서울 관악구 봉천동 728-23 지상 1층",
    "road_address": "",
    "lat": 37.49165161,
    "lng": 126.9279394,
    "sido": "서울특별시",
    "sigungu": "관악구"
  },
  {
    "name": "쏘카존 봉천동주차장",
    "address": "서울 관악구 봉천동 945-11 지상 1층",
    "road_address": "",
    "lat": 37.48269069,
    "lng": 126.94014756,
    "sido": "서울특별시",
    "sigungu": "관악구"
  },
  {
    "name": "쏘카존 삼모스포렉스 (기계식)",
    "address": "서울 관악구 신림동 1638-32 지상 1층 기계식 주차장",
    "road_address": "서울 관악구 신림로59길 23",
    "lat": 37.48268876,
    "lng": 126.92856082,
    "sido": "서울특별시",
    "sigungu": "관악구"
  },
  {
    "name": "쏘카존 삼모타워",
    "address": "서울 관악구 신림동 1638-1 지하 4층 12 쏘카 주차구역",
    "road_address": "서울 관악구 신원로 35",
    "lat": 37.48231061,
    "lng": 126.92902247,
    "sido": "서울특별시",
    "sigungu": "관악구"
  },
  {
    "name": "쏘카존 서울대벤처타운 주차장",
    "address": "서울 관악구 신림동 110-74 지상 1층",
    "road_address": "서울 관악구 신림로18가길 42",
    "lat": 37.47223402,
    "lng": 126.93419829,
    "sido": "서울특별시",
    "sigungu": "관악구"
  },
  {
    "name": "쏘카존 세이브마트 신림본점",
    "address": "서울 관악구 신림동 607-73 지상 1층",
    "road_address": "서울 관악구 난곡로 220",
    "lat": 37.47449473,
    "lng": 126.91842454,
    "sido": "서울특별시",
    "sigungu": "관악구"
  },
  {
    "name": "쏘카존 센터스퀘어서울대",
    "address": "서울 관악구 신림동 1747 지하 2층 나눔카 주차구역",
    "road_address": "서울 관악구 신림로 99",
    "lat": 37.47024686,
    "lng": 126.93842564,
    "sido": "서울특별시",
    "sigungu": "관악구"
  },
  {
    "name": "쏘카존 신림동 동부상가",
    "address": "서울 관악구 신림동 1695 지하 1층 (상가 주차장)",
    "road_address": "서울 관악구 관천로 15-2",
    "lat": 37.48116892,
    "lng": 126.92883587,
    "sido": "서울특별시",
    "sigungu": "관악구"
  },
  {
    "name": "쏘카존 신림동제1공영주차장",
    "address": "서울 관악구 신림동 1456-3 지상 2층",
    "road_address": "서울 관악구 관천로 98",
    "lat": 37.48739596,
    "lng": 126.92334717,
    "sido": "서울특별시",
    "sigungu": "관악구"
  },
  {
    "name": "쏘카존 신림역 최강타워아파트",
    "address": "서울 관악구 신림동 1745 지하 5층 B동 구역",
    "road_address": "서울 관악구 남부순환로180길 6",
    "lat": 37.48373335,
    "lng": 126.9306063,
    "sido": "서울특별시",
    "sigungu": "관악구"
  },
  {
    "name": "쏘카존 신원메트로빌 주차장",
    "address": "서울 관악구 봉천동 870-13 지하 4층",
    "road_address": "서울 관악구 남부순환로 1807-2",
    "lat": 37.4817301,
    "lng": 126.95169423,
    "sido": "서울특별시",
    "sigungu": "관악구"
  },
  {
    "name": "쏘카존 썬라이즈동산빌라",
    "address": "서울 관악구 신림동 1578-2 지상 1층 쏘카 주차구역",
    "road_address": "서울 관악구 남부순환로 1556",
    "lat": 37.48318568,
    "lng": 126.92354594,
    "sido": "서울특별시",
    "sigungu": "관악구"
  },
  {
    "name": "쏘카존 썬하우스",
    "address": "서울 관악구 봉천동 941-14 지상 1층 쏘카 주차구역",
    "road_address": "서울 관악구 봉천로27길 33",
    "lat": 37.4856488,
    "lng": 126.94034081,
    "sido": "서울특별시",
    "sigungu": "관악구"
  },
  {
    "name": "쏘카존 아데나38 오피스텔",
    "address": "서울 관악구 신림동 1432-38 지상 1층",
    "road_address": "서울 관악구 신림동1길 24",
    "lat": 37.48647828,
    "lng": 126.92835595,
    "sido": "서울특별시",
    "sigungu": "관악구"
  },
  {
    "name": "쏘카존 아라주차장",
    "address": "서울 관악구 신림동 1487-11 지상 4층",
    "road_address": "서울 관악구 남부순환로142길 13",
    "lat": 37.48046067,
    "lng": 126.91141398,
    "sido": "서울특별시",
    "sigungu": "관악구"
  },
  {
    "name": "쏘카존 애비뉴하우스 주차장",
    "address": "서울 관악구 봉천동 636-75 지상 1층 쏘카 주차구역",
    "road_address": "서울 관악구 봉천로23다길 59",
    "lat": 37.48732587,
    "lng": 126.93914432,
    "sido": "서울특별시",
    "sigungu": "관악구"
  },
  {
    "name": "쏘카존 에그옐로우쇼핑몰 주차장",
    "address": "서울 관악구 봉천동 862-1 지하 6층",
    "road_address": "서울 관악구 남부순환로 1820",
    "lat": 37.48083099,
    "lng": 126.95194241,
    "sido": "서울특별시",
    "sigungu": "관악구"
  },
  {
    "name": "쏘카존 예성1차그린캐슬아파트 (rf카드)",
    "address": "서울 관악구 남현동 1084-1 지상 1층",
    "road_address": "서울 관악구 남현7길 20",
    "lat": 37.47333941,
    "lng": 126.97693113,
    "sido": "서울특별시",
    "sigungu": "관악구"
  },
  {
    "name": "쏘카존 은호빌딩 주차장",
    "address": "서울 관악구 봉천동 937-13 지하 2층",
    "road_address": "서울 관악구 은천로 51",
    "lat": 37.48641672,
    "lng": 126.94085127,
    "sido": "서울특별시",
    "sigungu": "관악구"
  },
  {
    "name": "쏘카존 이코빌",
    "address": "서울 관악구 신림동 94-182 지상 1층 가운데 주차면",
    "road_address": "서울 관악구 쑥고개로 1-23",
    "lat": 37.47769674,
    "lng": 126.93733532,
    "sido": "서울특별시",
    "sigungu": "관악구"
  },
  {
    "name": "쏘카존 일성트루엘 주차장",
    "address": "서울 관악구 신림동 1523-1 지하 3층",
    "road_address": "서울 관악구 신림로23길 16",
    "lat": 37.47039443,
    "lng": 126.93470521,
    "sido": "서울특별시",
    "sigungu": "관악구"
  },
  {
    "name": "쏘카존 정원빌라",
    "address": "서울 관악구 신림동 1455-12 지상 1층 쏘카 주차구역",
    "road_address": "서울 관악구 관천로16길 33",
    "lat": 37.48747371,
    "lng": 126.92515962,
    "sido": "서울특별시",
    "sigungu": "관악구"
  },
  {
    "name": "쏘카존 제네시스",
    "address": "서울 관악구 신림동 1441-24 지상 1층 빌라 후면 주차장",
    "road_address": "서울 관악구 신림로71길 36",
    "lat": 37.48818624,
    "lng": 126.92632807,
    "sido": "서울특별시",
    "sigungu": "관악구"
  },
  {
    "name": "쏘카존 청암두산위브센티움",
    "address": "서울 관악구 신림동 86-3 지하 3층",
    "road_address": "서울 관악구 신림로 318",
    "lat": 37.4824447,
    "lng": 126.93026265,
    "sido": "서울특별시",
    "sigungu": "관악구"
  },
  {
    "name": "쏘카존 타임스트림 주차장",
    "address": "서울 관악구 신림동 1641-2 지하 6층",
    "road_address": "서울 관악구 신림로 330",
    "lat": 37.48373037,
    "lng": 126.930145,
    "sido": "서울특별시",
    "sigungu": "관악구"
  },
  {
    "name": "쏘카존 한승주차장",
    "address": "서울 관악구 봉천동 1568-8 지상 1층",
    "road_address": "서울 관악구 쑥고개로 129",
    "lat": 37.47903134,
    "lng": 126.95112276,
    "sido": "서울특별시",
    "sigungu": "관악구"
  },
  {
    "name": "쏘카존 해성코쿤프라자",
    "address": "서울 관악구 신림동 11-7 지상 1층~지하 1층",
    "road_address": "서울 관악구 남부순환로182길 24",
    "lat": 37.48321578,
    "lng": 126.9314932,
    "sido": "서울특별시",
    "sigungu": "관악구"
  },
  {
    "name": "쏘카존 AZ0213오피스텔(기계식)",
    "address": "서울 광진구 중곡동 648-14 지상 1층 기계식",
    "road_address": "서울 광진구 능동로37길 6",
    "lat": 37.55816687,
    "lng": 127.07956715,
    "sido": "서울특별시",
    "sigungu": "광진구"
  },
  {
    "name": "쏘카존 CS프라자 주차장",
    "address": "서울 광진구 구의동 212-3 지하 4층",
    "road_address": "서울 광진구 아차산로 471",
    "lat": 37.54044441,
    "lng": 127.09404404,
    "sido": "서울특별시",
    "sigungu": "광진구"
  },
  {
    "name": "쏘카존 SH 자양에스하임4",
    "address": "서울 광진구 자양동 622-8 지상 1층",
    "road_address": "서울 광진구 뚝섬로49길 60",
    "lat": 37.53450421,
    "lng": 127.08050484,
    "sido": "서울특별시",
    "sigungu": "광진구"
  },
  {
    "name": "쏘카존 [부름호출존] 구의3동 공영주차장",
    "address": "서울 광진구 구의동 219-15 지상 5층",
    "road_address": "서울 광진구 광나루로52길 83",
    "lat": 37.53918056,
    "lng": 127.09141741,
    "sido": "서울특별시",
    "sigungu": "광진구"
  },
  {
    "name": "쏘카존 [부름호출존] 능동공영주차장",
    "address": "서울 광진구 능동 205 옥상층",
    "road_address": "서울 광진구 천호대로112길 56",
    "lat": 37.55404165,
    "lng": 127.08024179,
    "sido": "서울특별시",
    "sigungu": "광진구"
  },
  {
    "name": "쏘카존 [부름호출존] 자양유수지 공영주차장",
    "address": "서울 광진구 자양동 594 지상1층",
    "road_address": "서울 광진구 뚝섬로52길 58",
    "lat": 37.52938401,
    "lng": 127.07752844,
    "sido": "서울특별시",
    "sigungu": "광진구"
  },
  {
    "name": "쏘카존 [부름호출존] 중곡3동 마을공원",
    "address": "서울 광진구 중곡동 195-1 지하 1층",
    "road_address": "서울 광진구 용마산로33길 25",
    "lat": 37.56995827,
    "lng": 127.08465877,
    "sido": "서울특별시",
    "sigungu": "광진구"
  },
  {
    "name": "쏘카존 [부름호출존] 화양동 공영주차장",
    "address": "서울 광진구 화양동 63-2",
    "road_address": "서울 광진구 군자로 22",
    "lat": 37.54530327,
    "lng": 127.0711945,
    "sido": "서울특별시",
    "sigungu": "광진구"
  },
  {
    "name": "쏘카존 [부름호출존]가나주차장",
    "address": "서울 광진구 화양동 8-27",
    "road_address": "서울 광진구 동일로22길 101",
    "lat": 37.54099022,
    "lng": 127.06962664,
    "sido": "서울특별시",
    "sigungu": "광진구"
  },
  {
    "name": "쏘카존 [부름호출존]나이스파크 한국소아마비협회",
    "address": "서울 광진구 구의동 16-3",
    "road_address": "서울 광진구 워커힐로 93",
    "lat": 37.55017131,
    "lng": 127.09771377,
    "sido": "서울특별시",
    "sigungu": "광진구"
  },
  {
    "name": "쏘카존 [부름호출존]카카오 T 리스빌딩",
    "address": "서울 광진구 군자동 249",
    "road_address": "서울 광진구 능동로 237",
    "lat": 37.55135503,
    "lng": 127.0759148,
    "sido": "서울특별시",
    "sigungu": "광진구"
  },
  {
    "name": "쏘카존 강변스파랜드 주차장",
    "address": "서울 광진구 구의동 593-15 지하 4층",
    "road_address": "서울 광진구 구의강변로 45",
    "lat": 37.53491963,
    "lng": 127.0915525,
    "sido": "서울특별시",
    "sigungu": "광진구"
  },
  {
    "name": "쏘카존 강변테크노마트",
    "address": "서울 광진구 구의동 546-4 지하 3층 219, 220, 230~234 구역",
    "road_address": "서울 광진구 광나루로56길 85",
    "lat": 37.53550737,
    "lng": 127.09574065,
    "sido": "서울특별시",
    "sigungu": "광진구"
  },
  {
    "name": "쏘카존 건국대학교 대운동장",
    "address": "서울 광진구 화양동 1 지상 1층",
    "road_address": "서울 광진구 능동로 120",
    "lat": 37.54381631,
    "lng": 127.07741552,
    "sido": "서울특별시",
    "sigungu": "광진구"
  },
  {
    "name": "쏘카존 건국사대부속중학교 주차장",
    "address": "서울 광진구 화양동 528 지상 1층 거주자 주차구역",
    "road_address": "서울 광진구 능동로 120",
    "lat": 37.54097918,
    "lng": 127.08255758,
    "sido": "서울특별시",
    "sigungu": "광진구"
  },
  {
    "name": "쏘카존 건대 DM7 오피스텔 (기계식)",
    "address": "서울 광진구 화양동 93-1 지하 2층 기계식 주차",
    "road_address": "서울 광진구 광나루로20길 40",
    "lat": 37.54517365,
    "lng": 127.07391695,
    "sido": "서울특별시",
    "sigungu": "광진구"
  },
  {
    "name": "쏘카존 골드팰리스",
    "address": "서울 광진구 중곡동 18-110 지상 1층 쏘카 지정 구역",
    "road_address": "서울 광진구 용마산로22길 11-32",
    "lat": 37.56502856,
    "lng": 127.0876255,
    "sido": "서울특별시",
    "sigungu": "광진구"
  },
  {
    "name": "쏘카존 광진광장 공영주차장",
    "address": "서울 광진구 군자동 374-4 지상 1층",
    "road_address": "서울 광진구 광나루로 389",
    "lat": 37.54779244,
    "lng": 127.07313646,
    "sido": "서울특별시",
    "sigungu": "광진구"
  },
  {
    "name": "쏘카존 광진그레이스빌딩",
    "address": "서울 광진구 구의동 199-15 지하 1층",
    "road_address": "서울 광진구 아차산로 478",
    "lat": 37.54031208,
    "lng": 127.09501584,
    "sido": "서울특별시",
    "sigungu": "광진구"
  },
  {
    "name": "쏘카존 구의삼성쉐르빌",
    "address": "서울 광진구 구의동 199-18 지하 2층 하 구역",
    "road_address": "서울 광진구 구의강변로 106",
    "lat": 37.54012661,
    "lng": 127.09485606,
    "sido": "서울특별시",
    "sigungu": "광진구"
  },
  {
    "name": "쏘카존 구의역 NC이스트폴",
    "address": "서울 광진구 자양동 870 지하 P2층 C01~C03 기둥 사이",
    "road_address": "서울 광진구 아차산로 400",
    "lat": 37.53668664,
    "lng": 127.08779485,
    "sido": "서울특별시",
    "sigungu": "광진구"
  },
  {
    "name": "쏘카존 군자동 현대아파트 뒷편 주차장",
    "address": "서울 광진구 군자동 100-2 지상 1층",
    "road_address": "서울 광진구 군자로 100-4",
    "lat": 37.5518646,
    "lng": 127.07223849,
    "sido": "서울특별시",
    "sigungu": "광진구"
  },
  {
    "name": "쏘카존 그랜드파크 오피스텔",
    "address": "서울 광진구 구의동 76-1 지하 4층",
    "road_address": "서울 광진구 천호대로 666",
    "lat": 37.55134565,
    "lng": 127.08933301,
    "sido": "서울특별시",
    "sigungu": "광진구"
  },
  {
    "name": "쏘카존 금성빌딩",
    "address": "서울 광진구 구의동 594-4 지상 1층",
    "road_address": "서울 광진구 구의강변로 46",
    "lat": 37.53491107,
    "lng": 127.09213065,
    "sido": "서울특별시",
    "sigungu": "광진구"
  },
  {
    "name": "쏘카존 달빛주차장",
    "address": "서울 광진구 중곡동 341-15 지상 1층",
    "road_address": "",
    "lat": 37.55713961,
    "lng": 127.08108488,
    "sido": "서울특별시",
    "sigungu": "광진구"
  },
  {
    "name": "쏘카존 대공원 맞은편 유료민영주차장",
    "address": "서울 광진구 중곡동 115-4 지상 1층",
    "road_address": "서울 광진구 천호대로 647",
    "lat": 37.55318089,
    "lng": 127.08944724,
    "sido": "서울특별시",
    "sigungu": "광진구"
  },
  {
    "name": "쏘카존 더메종 건대(기계식)",
    "address": "서울 광진구 화양동 23-5 지상 1층 기계식 주차장",
    "road_address": "서울 광진구 동일로 174",
    "lat": 37.54757321,
    "lng": 127.06756757,
    "sido": "서울특별시",
    "sigungu": "광진구"
  },
  {
    "name": "쏘카존 동도센트리움(기계식)",
    "address": "서울 광진구 화양동 116-2 기계식",
    "road_address": "서울 광진구 광나루로 370",
    "lat": 37.54759738,
    "lng": 127.07090246,
    "sido": "서울특별시",
    "sigungu": "광진구"
  },
  {
    "name": "쏘카존 동서울 노상공영주차장(유료23)",
    "address": "서울 광진구 자양동 735 지상 1층 유료 23",
    "road_address": "",
    "lat": 37.53141097,
    "lng": 127.09176544,
    "sido": "서울특별시",
    "sigungu": "광진구"
  },
  {
    "name": "쏘카존 동서울 노상공영주차장(유료24)",
    "address": "서울 광진구 구의동 625-3 지상 1층 유료24번",
    "road_address": "",
    "lat": 37.53225334,
    "lng": 127.09185358,
    "sido": "서울특별시",
    "sigungu": "광진구"
  },
  {
    "name": "쏘카존 동서울터미널",
    "address": "서울 광진구 구의동 546-1 지하 3층",
    "road_address": "서울 광진구 강변역로 50",
    "lat": 37.53373671,
    "lng": 127.09259421,
    "sido": "서울특별시",
    "sigungu": "광진구"
  },
  {
    "name": "쏘카존 롯데 하이마트 건대입구점",
    "address": "서울 광진구 자양동 227-3 지상 1층 고객주차장",
    "road_address": "서울 광진구 아차산로 300",
    "lat": 37.53788321,
    "lng": 127.0760437,
    "sido": "서울특별시",
    "sigungu": "광진구"
  },
  {
    "name": "쏘카존 리마크빌 군자",
    "address": "서울 광진구 중곡동 637-5 지하 3층",
    "road_address": "서울 광진구 천호대로 517",
    "lat": 37.55916906,
    "lng": 127.07641618,
    "sido": "서울특별시",
    "sigungu": "광진구"
  },
  {
    "name": "쏘카존 리아리움 오피스텔 (기계식)",
    "address": "서울 광진구 중곡동 157-17 지상1층 기계식주차장",
    "road_address": "서울 광진구 천호대로109길 9",
    "lat": 37.55738578,
    "lng": 127.08078862,
    "sido": "서울특별시",
    "sigungu": "광진구"
  },
  {
    "name": "쏘카존 몰오브케이(기계식)",
    "address": "서울 광진구 자양동 9-4 지하 2층 자주식+기계식 주차장",
    "road_address": "서울 광진구 아차산로30길 26",
    "lat": 37.53978894,
    "lng": 127.06693483,
    "sido": "서울특별시",
    "sigungu": "광진구"
  },
  {
    "name": "쏘카존 비바힐스 강변(기계식)",
    "address": "서울 광진구 구의동 593-11 지상 1층 기계식 주차장",
    "road_address": "서울 광진구 구의강변로 51",
    "lat": 37.53543483,
    "lng": 127.0917715,
    "sido": "서울특별시",
    "sigungu": "광진구"
  },
  {
    "name": "쏘카존 삼민아파트 뒷편 지상주차장",
    "address": "서울 광진구 중곡동 609 지상 1층",
    "road_address": "서울 광진구 긴고랑로15길 32",
    "lat": 37.56301675,
    "lng": 127.08374656,
    "sido": "서울특별시",
    "sigungu": "광진구"
  },
  {
    "name": "쏘카존 서원주차장",
    "address": "서울 광진구 자양동 219-5 지상 1층",
    "road_address": "서울 광진구 아차산로 360",
    "lat": 37.53618229,
    "lng": 127.08251156,
    "sido": "서울특별시",
    "sigungu": "광진구"
  },
  {
    "name": "쏘카존 송림식당길 노상 공영주차장",
    "address": "서울 광진구 자양동 794-2 지상 1층 지정 64구역",
    "road_address": "서울 광진구 자양번영로 90",
    "lat": 37.53757625,
    "lng": 127.07701079,
    "sido": "서울특별시",
    "sigungu": "광진구"
  },
  {
    "name": "쏘카존 스타시티 스타존(롯데백화점)",
    "address": "서울 광진구 자양동 227-342 지하 6층 601 전기차 충전구역",
    "road_address": "서울 광진구 능동로 90",
    "lat": 37.53889607,
    "lng": 127.07149843,
    "sido": "서울특별시",
    "sigungu": "광진구"
  },
  {
    "name": "쏘카존 스타시티 스타존(롯데백화점)",
    "address": "서울 광진구 자양동 227-342 지하 4층 407-408 쏘카 주차구역",
    "road_address": "서울 광진구 능동로 90",
    "lat": 37.53903613,
    "lng": 127.07083099,
    "sido": "서울특별시",
    "sigungu": "광진구"
  },
  {
    "name": "쏘카존 스타시티 시티존(쇼핑몰)",
    "address": "서울 광진구 자양동 227-7 지하 3층 H82-85 구역",
    "road_address": "서울 광진구 아차산로 262",
    "lat": 37.53844006,
    "lng": 127.07314995,
    "sido": "서울특별시",
    "sigungu": "광진구"
  },
  {
    "name": "쏘카존 스타시티 시티존(쇼핑몰)",
    "address": "서울 광진구 자양동 227-7 지하 3층 F92-94 전기차 충전구역",
    "road_address": "서울 광진구 아차산로 262",
    "lat": 37.5382731,
    "lng": 127.0735854,
    "sido": "서울특별시",
    "sigungu": "광진구"
  },
  {
    "name": "쏘카존 스테이더디자이너스 주차장(기계식)",
    "address": "서울 광진구 군자동 473-21 지상 1층 승용차 전용 기계식 주차장",
    "road_address": "서울 광진구 천호대로 538",
    "lat": 37.5573418,
    "lng": 127.07785052,
    "sido": "서울특별시",
    "sigungu": "광진구"
  },
  {
    "name": "쏘카존 실로암사우나 중곡점",
    "address": "서울 광진구 중곡동 169-80 지상 2층",
    "road_address": "서울 광진구 용마산로 171",
    "lat": 37.56901144,
    "lng": 127.08575341,
    "sido": "서울특별시",
    "sigungu": "광진구"
  },
  {
    "name": "쏘카존 어린이회관 주차장",
    "address": "서울 광진구 능동 18-11 지상 1층",
    "road_address": "서울 광진구 광나루로 441",
    "lat": 37.54743083,
    "lng": 127.07505871,
    "sido": "서울특별시",
    "sigungu": "광진구"
  },
  {
    "name": "쏘카존 영동주차장",
    "address": "서울 광진구 자양동 235-3 지상 1층",
    "road_address": "서울 광진구 동일로4길 1",
    "lat": 37.53658444,
    "lng": 127.06129169,
    "sido": "서울특별시",
    "sigungu": "광진구"
  },
  {
    "name": "쏘카존 워커힐호텔 주차타워",
    "address": "서울 광진구 광장동 26-3 지상 1층 31번 쏘카 주차구역",
    "road_address": "서울 광진구 워커힐로 177",
    "lat": 37.55541207,
    "lng": 127.10941254,
    "sido": "서울특별시",
    "sigungu": "광진구"
  },
  {
    "name": "쏘카존 워커힐호텔 주차타워",
    "address": "서울 광진구 광장동 26-3 지상 1층 32번 쏘카 충전구역",
    "road_address": "서울 광진구 워커힐로 177",
    "lat": 37.55521511,
    "lng": 127.10901841,
    "sido": "서울특별시",
    "sigungu": "광진구"
  },
  {
    "name": "쏘카존 웰츠타워오피스텔",
    "address": "서울 광진구 구의동 252-16 지하 2층 전기차 충전구역",
    "road_address": "서울 광진구 자양로 116",
    "lat": 37.53832494,
    "lng": 127.08368047,
    "sido": "서울특별시",
    "sigungu": "광진구"
  },
  {
    "name": "쏘카존 웰츠타워오피스텔",
    "address": "서울 광진구 구의동 252-16 지하 5층",
    "road_address": "서울 광진구 자양로 116",
    "lat": 37.53836515,
    "lng": 127.08415913,
    "sido": "서울특별시",
    "sigungu": "광진구"
  },
  {
    "name": "쏘카존 자양4동 공영주차장",
    "address": "서울 광진구 자양동 5-5 지상 1층 쏘카 주차구역",
    "road_address": "",
    "lat": 37.53867545,
    "lng": 127.06825427,
    "sido": "서울특별시",
    "sigungu": "광진구"
  },
  {
    "name": "쏘카존 자양번영로7길 15 빌라",
    "address": "서울 광진구 자양동 227-289 지상 1층 쏘카 주차구역",
    "road_address": "서울 광진구 자양번영로7길 15",
    "lat": 37.53569239,
    "lng": 127.07540787,
    "sido": "서울특별시",
    "sigungu": "광진구"
  },
  {
    "name": "쏘카존 재성빌딩 주차장",
    "address": "서울 광진구 자양동 17-5 지상1층",
    "road_address": "서울 광진구 아차산로 192",
    "lat": 37.54160923,
    "lng": 127.06482842,
    "sido": "서울특별시",
    "sigungu": "광진구"
  },
  {
    "name": "쏘카존 청화주차장",
    "address": "서울 광진구 화양동 49-9 지상 2층",
    "road_address": "서울 광진구 아차산로 191",
    "lat": 37.5423623,
    "lng": 127.06512554,
    "sido": "서울특별시",
    "sigungu": "광진구"
  },
  {
    "name": "쏘카존 캠퍼스시티 오피스텔(기계식)",
    "address": "서울 광진구 화양동 21-20 지하 2층 기계식(1호기)",
    "road_address": "서울 광진구 동일로 178",
    "lat": 37.54780189,
    "lng": 127.06787557,
    "sido": "서울특별시",
    "sigungu": "광진구"
  },
  {
    "name": "쏘카존 타워파크빌",
    "address": "서울 광진구 중곡동 210-23 지상 1층 쏘카 주차구역",
    "road_address": "서울 광진구 답십리로82길 31",
    "lat": 37.56999123,
    "lng": 127.08265298,
    "sido": "서울특별시",
    "sigungu": "광진구"
  },
  {
    "name": "쏘카존 한아름 528 주차장 (승강기)",
    "address": "서울 광진구 화양동 10-1 지상 4층 (옥상)",
    "road_address": "서울 광진구 능동로13길 39",
    "lat": 37.54350294,
    "lng": 127.06990055,
    "sido": "서울특별시",
    "sigungu": "광진구"
  },
  {
    "name": "쏘카존 행복유료주차장",
    "address": "서울 광진구 능동 247-3 지상 1층",
    "road_address": "서울 광진구 천호대로 620-1",
    "lat": 37.55415737,
    "lng": 127.08608948,
    "sido": "서울특별시",
    "sigungu": "광진구"
  },
  {
    "name": "쏘카존 NC백화점 신구로점 옥외주차장",
    "address": "서울 구로구 구로동 573 지상 4층 전기차 충전구역",
    "road_address": "서울 구로구 구로중앙로 146-1",
    "lat": 37.50075017,
    "lng": 126.88312073,
    "sido": "서울특별시",
    "sigungu": "구로구"
  },
  {
    "name": "쏘카존 NC백화점 신구로점 옥외주차장",
    "address": "서울 구로구 구로동 573 지상 3층 철골주차장",
    "road_address": "서울 구로구 구로중앙로 146-1",
    "lat": 37.50092659,
    "lng": 126.88294177,
    "sido": "서울특별시",
    "sigungu": "구로구"
  },
  {
    "name": "쏘카존 TP타워 주차장 (태평양물산IT빌딩)",
    "address": "서울 구로구 구로동 197-21 지하 4층 21~22구역 사이",
    "road_address": "서울 구로구 디지털로31길 12",
    "lat": 37.48517829,
    "lng": 126.89486215,
    "sido": "서울특별시",
    "sigungu": "구로구"
  },
  {
    "name": "쏘카존 [부름호출존] 가마산고가밑 공영노상주차장",
    "address": "서울 구로구 구로동 414-13 지상 1층",
    "road_address": "",
    "lat": 37.49266479,
    "lng": 126.88246617,
    "sido": "서울특별시",
    "sigungu": "구로구"
  },
  {
    "name": "쏘카존 [부름호출존] 고척리본타운 공영",
    "address": "서울 구로구 고척동 156-1 지하 1층",
    "road_address": "서울 구로구 고척로52나길 25",
    "lat": 37.50514336,
    "lng": 126.85757425,
    "sido": "서울특별시",
    "sigungu": "구로구"
  },
  {
    "name": "쏘카존 [부름호출존] 구로2동 마을공동",
    "address": "서울 구로구 구로동 317-187 지상 2층",
    "road_address": "서울 구로구 구로동로28길 81",
    "lat": 37.49147843,
    "lng": 126.88830957,
    "sido": "서울특별시",
    "sigungu": "구로구"
  },
  {
    "name": "쏘카존 [부름호출존] 구로5동 마을",
    "address": "서울 구로구 구로동 549-5 지상 1층",
    "road_address": "서울 구로구 구로중앙로28길 31-39",
    "lat": 37.50086139,
    "lng": 126.88629841,
    "sido": "서울특별시",
    "sigungu": "구로구"
  },
  {
    "name": "쏘카존 [부름호출존] 마리오타워",
    "address": "서울 구로구 구로동 222-12 지하 2층",
    "road_address": "서울 구로구 디지털로30길 28",
    "lat": 37.48204414,
    "lng": 126.89537193,
    "sido": "서울특별시",
    "sigungu": "구로구"
  },
  {
    "name": "쏘카존 [부름호출존] 아이온타워2차",
    "address": "서울 구로구 항동 242-5 지하 2층",
    "road_address": "",
    "lat": 37.48065674,
    "lng": 126.82414809,
    "sido": "서울특별시",
    "sigungu": "구로구"
  },
  {
    "name": "쏘카존 [부름호출존] 오류 1동 텃골공영",
    "address": "서울 구로구 오류동 6-11 지상 2층",
    "road_address": "서울 구로구 경인로15길 22",
    "lat": 37.49547265,
    "lng": 126.83914883,
    "sido": "서울특별시",
    "sigungu": "구로구"
  },
  {
    "name": "쏘카존 [부름호출존] 카카오 T 우리은행구로본동지점",
    "address": "서울 구로구 구로동 426-6",
    "road_address": "서울 구로구 가마산로 203",
    "lat": 37.4933922,
    "lng": 126.88367158,
    "sido": "서울특별시",
    "sigungu": "구로구"
  },
  {
    "name": "쏘카존 [부름호출존] 하늘공원 주차장",
    "address": "서울 구로구 가리봉동 1-11 지상 2층",
    "road_address": "서울 구로구 벚꽃로 370",
    "lat": 37.48707957,
    "lng": 126.88078565,
    "sido": "서울특별시",
    "sigungu": "구로구"
  },
  {
    "name": "쏘카존 [부름호출존]나이스파크 오류동 시티월드",
    "address": "서울 구로구 오류동 44-10",
    "road_address": "서울 구로구 경인로 176",
    "lat": 37.49438217,
    "lng": 126.84095255,
    "sido": "서울특별시",
    "sigungu": "구로구"
  },
  {
    "name": "쏘카존 [부름호출존]아마노 구로남스포츠센터",
    "address": "서울 구로구 구로동 253",
    "road_address": "서울 구로구 디지털로27길 76",
    "lat": 37.48430883,
    "lng": 126.88992465,
    "sido": "서울특별시",
    "sigungu": "구로구"
  },
  {
    "name": "쏘카존 [부름호출존]카카오 T 국민은행개봉남지점",
    "address": "서울 구로구 개봉동 403-196",
    "road_address": "서울 구로구 개봉로 10",
    "lat": 37.48657267,
    "lng": 126.85677845,
    "sido": "서울특별시",
    "sigungu": "구로구"
  },
  {
    "name": "쏘카존 개봉1동 노외공영주차장",
    "address": "서울 구로구 개봉동 134-8 지상 1층",
    "road_address": "서울 구로구 경인로33길 51",
    "lat": 37.5000312,
    "lng": 126.85111184,
    "sido": "서울특별시",
    "sigungu": "구로구"
  },
  {
    "name": "쏘카존 개봉역센트레빌레우스 103동",
    "address": "서울 구로구 개봉동 497 지상 1층 쏘카 주차구역",
    "road_address": "서울 구로구 경인로 302",
    "lat": 37.49656982,
    "lng": 126.85349914,
    "sido": "서울특별시",
    "sigungu": "구로구"
  },
  {
    "name": "쏘카존 고척 아이파크 RD동",
    "address": "서울 구로구 고척동 350 지상 1층",
    "road_address": "서울 구로구 중앙로5길 59",
    "lat": 37.50096224,
    "lng": 126.85868709,
    "sido": "서울특별시",
    "sigungu": "구로구"
  },
  {
    "name": "쏘카존 고척1동마을 공영주차장",
    "address": "서울 구로구 고척동 52-54 지상 3층",
    "road_address": "서울 구로구 중앙로8길 16",
    "lat": 37.50232256,
    "lng": 126.86389246,
    "sido": "서울특별시",
    "sigungu": "구로구"
  },
  {
    "name": "쏘카존 고척근린공원 주차장",
    "address": "서울 구로구 고척동 264-31 지하 2층 쏘카 주차구역",
    "road_address": "",
    "lat": 37.50412377,
    "lng": 126.85270741,
    "sido": "서울특별시",
    "sigungu": "구로구"
  },
  {
    "name": "쏘카존 고척스카이프라자 (승강기)",
    "address": "서울 구로구 고척동 50-48 옥상층",
    "road_address": "서울 구로구 중앙로 64",
    "lat": 37.50392919,
    "lng": 126.86323359,
    "sido": "서울특별시",
    "sigungu": "구로구"
  },
  {
    "name": "쏘카존 구로 천왕센타프라자",
    "address": "서울 구로구 천왕동 277-9 지하 2층",
    "road_address": "서울 구로구 천왕로 36",
    "lat": 37.4808344,
    "lng": 126.83945156,
    "sido": "서울특별시",
    "sigungu": "구로구"
  },
  {
    "name": "쏘카존 구로G밸리 비즈플라자",
    "address": "서울 구로구 구로동 188-25 지하 4층",
    "road_address": "서울 구로구 디지털로 300",
    "lat": 37.48527116,
    "lng": 126.89697977,
    "sido": "서울특별시",
    "sigungu": "구로구"
  },
  {
    "name": "쏘카존 구로선경오피스텔(기계식)",
    "address": "서울 구로구 구로동 106-4 지상 1층 기계식 주차장",
    "road_address": "서울 구로구 공원로 3",
    "lat": 37.49769183,
    "lng": 126.89225267,
    "sido": "서울특별시",
    "sigungu": "구로구"
  },
  {
    "name": "쏘카존 구로성심병원 옆",
    "address": "서울 구로구 고척동 76-1 지상 1층",
    "road_address": "",
    "lat": 37.4999726,
    "lng": 126.86614155,
    "sido": "서울특별시",
    "sigungu": "구로구"
  },
  {
    "name": "쏘카존 구로아트밸리 공영주차장",
    "address": "서울 구로구 구로동 102 지하 2층",
    "road_address": "서울 구로구 가마산로25길 21",
    "lat": 37.49696362,
    "lng": 126.89008249,
    "sido": "서울특별시",
    "sigungu": "구로구"
  },
  {
    "name": "쏘카존 구로오네뜨시티(기계식)",
    "address": "서울 구로구 구로동 103-6 지하 1층 기계식 주차장",
    "road_address": "서울 구로구 가마산로 271",
    "lat": 37.49639708,
    "lng": 126.89028913,
    "sido": "서울특별시",
    "sigungu": "구로구"
  },
  {
    "name": "쏘카존 구일역 1번출구",
    "address": "서울 구로구 구로동 650-4",
    "road_address": "서울 구로구 구일로10길 27",
    "lat": 37.49588299,
    "lng": 126.87271108,
    "sido": "서울특별시",
    "sigungu": "구로구"
  },
  {
    "name": "쏘카존 대림2차우성아파트 주차장",
    "address": "서울 구로구 구로동 120 지하 2층",
    "road_address": "서울 구로구 도림천로 344",
    "lat": 37.49408473,
    "lng": 126.89383307,
    "sido": "서울특별시",
    "sigungu": "구로구"
  },
  {
    "name": "쏘카존 대림노외 구로2빗물펌프장 공영주차장",
    "address": "서울 구로구 구로동 120-5 지상 1층",
    "road_address": "",
    "lat": 37.49285067,
    "lng": 126.89418762,
    "sido": "서울특별시",
    "sigungu": "구로구"
  },
  {
    "name": "쏘카존 롯데 하이마트 개봉점",
    "address": "서울 구로구 개봉동 161-4 지상 1층",
    "road_address": "서울 구로구 경인로 334",
    "lat": 37.49706736,
    "lng": 126.85733288,
    "sido": "서울특별시",
    "sigungu": "구로구"
  },
  {
    "name": "쏘카존 롯데 하이마트 구로점",
    "address": "서울 구로구 구로동 104-11 지상 1층",
    "road_address": "서울 구로구 가마산로 277",
    "lat": 37.49658132,
    "lng": 126.89076155,
    "sido": "서울특별시",
    "sigungu": "구로구"
  },
  {
    "name": "쏘카존 삼성IT밸리 주차장",
    "address": "서울 구로구 구로동 197-5 지하 2층",
    "road_address": "서울 구로구 디지털로33길 27",
    "lat": 37.48604999,
    "lng": 126.89432498,
    "sido": "서울특별시",
    "sigungu": "구로구"
  },
  {
    "name": "쏘카존 생각공장 구로",
    "address": "서울 구로구 구로동 1292 지하 2층 J, K, L 기둥",
    "road_address": "서울 구로구 경인로 482",
    "lat": 37.49820582,
    "lng": 126.87274106,
    "sido": "서울특별시",
    "sigungu": "구로구"
  },
  {
    "name": "쏘카존 세이지움 개봉",
    "address": "서울 구로구 개봉동 403-29 지하 1층 나눔카 주차구역",
    "road_address": "",
    "lat": 37.49264407,
    "lng": 126.85563834,
    "sido": "서울특별시",
    "sigungu": "구로구"
  },
  {
    "name": "쏘카존 스윙파크 주차장",
    "address": "서울 구로구 구로동 1124-49 지상 1층",
    "road_address": "서울 구로구 디지털로32나길 51",
    "lat": 37.48472266,
    "lng": 126.90038609,
    "sido": "서울특별시",
    "sigungu": "구로구"
  },
  {
    "name": "쏘카존 스페스큐브오피스텔",
    "address": "서울 구로구 구로동 81-4 지상 1층",
    "road_address": "서울 구로구 가마산로 228",
    "lat": 37.49355443,
    "lng": 126.88650511,
    "sido": "서울특별시",
    "sigungu": "구로구"
  },
  {
    "name": "쏘카존 신도림 디큐브시티 주차장",
    "address": "서울 구로구 신도림동 692 지하 4층 1~3구역",
    "road_address": "서울 구로구 경인로 662",
    "lat": 37.50905661,
    "lng": 126.8897639,
    "sido": "서울특별시",
    "sigungu": "구로구"
  },
  {
    "name": "쏘카존 신도림 테크노마트",
    "address": "서울 구로구 구로동 3-25 지하 7층 전기차 충전구역",
    "road_address": "서울 구로구 새말로 97",
    "lat": 37.50652113,
    "lng": 126.89067243,
    "sido": "서울특별시",
    "sigungu": "구로구"
  },
  {
    "name": "쏘카존 신도림 팰러티움",
    "address": "서울 구로구 신도림동 412-3 지하 4층 102동 엘리베이터 인근",
    "road_address": "서울 구로구 경인로 584",
    "lat": 37.50386275,
    "lng": 126.88182206,
    "sido": "서울특별시",
    "sigungu": "구로구"
  },
  {
    "name": "쏘카존 신도림1차푸르지오오피스텔 주차장",
    "address": "서울 구로구 신도림동 337 지하 4층 A~B 구역",
    "road_address": "서울 구로구 경인로 661",
    "lat": 37.50941899,
    "lng": 126.88802949,
    "sido": "서울특별시",
    "sigungu": "구로구"
  },
  {
    "name": "쏘카존 신도림포스빌 주차장",
    "address": "서울 구로구 구로동 26 지하 5층 A8-11 전기차 충전구역",
    "road_address": "서울 구로구 새말로 102",
    "lat": 37.50563215,
    "lng": 126.89100962,
    "sido": "서울특별시",
    "sigungu": "구로구"
  },
  {
    "name": "쏘카존 신도림포스빌 주차장",
    "address": "서울 구로구 구로동 26 지하 5층",
    "road_address": "서울 구로구 새말로 102",
    "lat": 37.50583263,
    "lng": 126.89150244,
    "sido": "서울특별시",
    "sigungu": "구로구"
  },
  {
    "name": "쏘카존 아이파크몰 고척점",
    "address": "서울 구로구 고척동 351 지하 1층 24 전기차(완속) 충전구역",
    "road_address": "서울 구로구 경인로43길 49",
    "lat": 37.49930112,
    "lng": 126.85821525,
    "sido": "서울특별시",
    "sigungu": "구로구"
  },
  {
    "name": "쏘카존 아이파크몰 고척점",
    "address": "서울 구로구 고척동 351 지하 1층 03-07 구역",
    "road_address": "서울 구로구 경인로43길 49",
    "lat": 37.49891413,
    "lng": 126.85934346,
    "sido": "서울특별시",
    "sigungu": "구로구"
  },
  {
    "name": "쏘카존 에이스하이엔드타워 1차",
    "address": "서울 구로구 구로동 235-2 지하 2층 M구역 인근",
    "road_address": "서울 구로구 디지털로26길 5",
    "lat": 37.48154233,
    "lng": 126.89342231,
    "sido": "서울특별시",
    "sigungu": "구로구"
  },
  {
    "name": "쏘카존 오류동역 코레일주차장",
    "address": "서울 구로구 오류동 65-6 지상 1층",
    "road_address": "",
    "lat": 37.49473676,
    "lng": 126.84334234,
    "sido": "서울특별시",
    "sigungu": "구로구"
  },
  {
    "name": "쏘카존 오류문화센터 민영주차장",
    "address": "서울 구로구 오류동 64-28 지상 1층",
    "road_address": "서울 구로구 경인로20가길 24",
    "lat": 37.49544298,
    "lng": 126.84595873,
    "sido": "서울특별시",
    "sigungu": "구로구"
  },
  {
    "name": "쏘카존 온수역(남) 노상공영주차장",
    "address": "서울 구로구 온수동 51-26 지상 1층",
    "road_address": "서울 구로구 경인로3길 지하 64",
    "lat": 37.49183984,
    "lng": 126.82401219,
    "sido": "서울특별시",
    "sigungu": "구로구"
  },
  {
    "name": "쏘카존 지플러스코오롱디지털타워",
    "address": "서울 구로구 구로동 222-31 지하 4층",
    "road_address": "서울 구로구 디지털로26길 123",
    "lat": 37.48306887,
    "lng": 126.89775615,
    "sido": "서울특별시",
    "sigungu": "구로구"
  },
  {
    "name": "쏘카존 천왕역 공영주차장",
    "address": "서울 구로구 천왕동 280-11 지상 2층 07 전기차 충전구역",
    "road_address": "서울 구로구 오리로 1156",
    "lat": 37.48713824,
    "lng": 126.83907963,
    "sido": "서울특별시",
    "sigungu": "구로구"
  },
  {
    "name": "쏘카존 천왕이펜하우스S",
    "address": "서울 구로구 천왕동 산 25-8 지상 1층 쏘카 주차구역",
    "road_address": "서울 구로구 천왕로 50",
    "lat": 37.48159381,
    "lng": 126.8386845,
    "sido": "서울특별시",
    "sigungu": "구로구"
  },
  {
    "name": "쏘카존 코오롱싸이언스밸리 2차",
    "address": "서울 구로구 구로동 811 지하 2층 쏘카 주차구역",
    "road_address": "서울 구로구 디지털로34길 55",
    "lat": 37.48429733,
    "lng": 126.89925938,
    "sido": "서울특별시",
    "sigungu": "구로구"
  },
  {
    "name": "쏘카존 티타운빌딩 주차장",
    "address": "서울 구로구 구로동 1127-22 지하 3층",
    "road_address": "서울 구로구 디지털로32가길 25",
    "lat": 37.48197142,
    "lng": 126.89878425,
    "sido": "서울특별시",
    "sigungu": "구로구"
  },
  {
    "name": "쏘카존 포포인츠바이쉐라톤 구로 주차장",
    "address": "서울 구로구 구로동 1128-1 지하 4층",
    "road_address": "서울 구로구 디지털로32길 72",
    "lat": 37.48311862,
    "lng": 126.89902692,
    "sido": "서울특별시",
    "sigungu": "구로구"
  },
  {
    "name": "쏘카존 한신IT타워",
    "address": "서울 구로구 구로동 235 지상 1층",
    "road_address": "서울 구로구 디지털로 272",
    "lat": 37.48249743,
    "lng": 126.89445322,
    "sido": "서울특별시",
    "sigungu": "구로구"
  },
  {
    "name": "쏘카존 한화비즈메트로 1차",
    "address": "서울 구로구 구로동 851 한화비즈메트로1차 지하3층",
    "road_address": "서울 구로구 디지털로 242",
    "lat": 37.48078221,
    "lng": 126.89278799,
    "sido": "서울특별시",
    "sigungu": "구로구"
  },
  {
    "name": "쏘카존 항동하버라인 10단지 주차장",
    "address": "서울 구로구 항동 135-57 지하 1층 A07 쏘카 주차구역",
    "road_address": "서울 구로구 항동로 60",
    "lat": 37.47945681,
    "lng": 126.82611812,
    "sido": "서울특별시",
    "sigungu": "구로구"
  },
  {
    "name": "쏘카존 항동하버라인 11단지 주차장",
    "address": "서울 구로구 항동 243 지상 1층 1103동 인근",
    "road_address": "서울 구로구 연동로 191-5",
    "lat": 37.47788211,
    "lng": 126.82265999,
    "sido": "서울특별시",
    "sigungu": "구로구"
  },
  {
    "name": "쏘카존 행복2주차장",
    "address": "서울 구로구 오류동 66 지상 1층 행복2주차장",
    "road_address": "서울 구로구 경인로20길 13",
    "lat": 37.49409087,
    "lng": 126.84480921,
    "sido": "서울특별시",
    "sigungu": "구로구"
  },
  {
    "name": "쏘카존 힐스테이트신도림역센트럴",
    "address": "서울 구로구 신도림동 433-24 지하1층",
    "road_address": "서울 구로구 경인로 625",
    "lat": 37.50705698,
    "lng": 126.88472257,
    "sido": "서울특별시",
    "sigungu": "구로구"
  },
  {
    "name": "쏘카존 BYC하이시티 주차장",
    "address": "서울 금천구 가산동 371-17 지하 3층",
    "road_address": "서울 금천구 가산디지털1로 131",
    "lat": 37.47691133,
    "lng": 126.8822229,
    "sido": "서울특별시",
    "sigungu": "금천구"
  },
  {
    "name": "쏘카존 SH 스타힐스 빌라",
    "address": "서울 금천구 시흥동 960-10 지상 1층 쏘카 주차구역",
    "road_address": "서울 금천구 시흥대로12길 23",
    "lat": 37.43918013,
    "lng": 126.90475849,
    "sido": "서울특별시",
    "sigungu": "금천구"
  },
  {
    "name": "쏘카존 SH 아이빌 A",
    "address": "서울 금천구 시흥동 220-10 지상 1층",
    "road_address": "서울 금천구 탑골로3길 18",
    "lat": 37.45235236,
    "lng": 126.91212863,
    "sido": "서울특별시",
    "sigungu": "금천구"
  },
  {
    "name": "쏘카존 SH 아이빌7차",
    "address": "서울 금천구 시흥동 833-13 지상1층",
    "road_address": "서울 금천구 독산로20길 13",
    "lat": 37.4531968,
    "lng": 126.90765096,
    "sido": "서울특별시",
    "sigungu": "금천구"
  },
  {
    "name": "쏘카존 SH 영호주택 주차장",
    "address": "서울 금천구 독산동 331-69 지상 1층",
    "road_address": "서울 금천구 범안로17길 17-19",
    "lat": 37.46756132,
    "lng": 126.89337434,
    "sido": "서울특별시",
    "sigungu": "금천구"
  },
  {
    "name": "쏘카존 [부름호출존]나이스파크 금천 롯데타워 오피스텔",
    "address": "서울 금천구 독산동 1160",
    "road_address": "서울 금천구 벚꽃로 100",
    "lat": 37.46461568,
    "lng": 126.89113249,
    "sido": "서울특별시",
    "sigungu": "금천구"
  },
  {
    "name": "쏘카존 [부름호출존]카카오 T 동경빌딩",
    "address": "서울 금천구 시흥동 883-7",
    "road_address": "서울 금천구 시흥대로 228",
    "lat": 37.45425581,
    "lng": 126.90136119,
    "sido": "서울특별시",
    "sigungu": "금천구"
  },
  {
    "name": "쏘카존 sk트윈테크타워",
    "address": "서울 금천구 가산동 345-9 지하 2층",
    "road_address": "서울 금천구 가산디지털1로 119",
    "lat": 37.47608215,
    "lng": 126.88287652,
    "sido": "서울특별시",
    "sigungu": "금천구"
  },
  {
    "name": "쏘카존 가산 더블유센터 지하주차장",
    "address": "서울 금천구 가산동 371-106 지하 4층",
    "road_address": "서울 금천구 가산디지털1로 181",
    "lat": 37.48141723,
    "lng": 126.88038649,
    "sido": "서울특별시",
    "sigungu": "금천구"
  },
  {
    "name": "쏘카존 가산동금천교 노상공영주차장",
    "address": "서울 금천구 가산동 677 지상 1층",
    "road_address": "",
    "lat": 37.46593215,
    "lng": 126.88738563,
    "sido": "서울특별시",
    "sigungu": "금천구"
  },
  {
    "name": "쏘카존 가산디지털단지 노상주차장",
    "address": "서울 금천구 가산동 505-1 지상 1층",
    "road_address": "",
    "lat": 37.48588367,
    "lng": 126.87964217,
    "sido": "서울특별시",
    "sigungu": "금천구"
  },
  {
    "name": "쏘카존 가산디지털단지 노상주차장",
    "address": "서울 금천구 가산동 505-1 지상 1층 쏘카 충전구역",
    "road_address": "",
    "lat": 37.48590877,
    "lng": 126.87951662,
    "sido": "서울특별시",
    "sigungu": "금천구"
  },
  {
    "name": "쏘카존 가산디지털엠파이어",
    "address": "서울 금천구 가산동 685 지하 3층 19 전기차 충전구역",
    "road_address": "서울 금천구 범안로 1130",
    "lat": 37.46515741,
    "lng": 126.88752809,
    "sido": "서울특별시",
    "sigungu": "금천구"
  },
  {
    "name": "쏘카존 가산디지털엠파이어",
    "address": "서울 금천구 가산동 685 지하 3층",
    "road_address": "서울 금천구 범안로 1130",
    "lat": 37.46539165,
    "lng": 126.887504,
    "sido": "서울특별시",
    "sigungu": "금천구"
  },
  {
    "name": "쏘카존 가산센트럴푸르지오시티오피스텔 B,C동",
    "address": "서울 금천구 가산동 233-5 지하 3층",
    "road_address": "서울 금천구 디지털로10길 69",
    "lat": 37.47541373,
    "lng": 126.89053122,
    "sido": "서울특별시",
    "sigungu": "금천구"
  },
  {
    "name": "쏘카존 가산센트럴푸르지오시티오피스텔 B,C동",
    "address": "서울 금천구 가산동 233-5 지하 2층 전기차 충전구역",
    "road_address": "서울 금천구 디지털로10길 69",
    "lat": 37.47559887,
    "lng": 126.89099447,
    "sido": "서울특별시",
    "sigungu": "금천구"
  },
  {
    "name": "쏘카존 거주자 05-00-04 구획",
    "address": "서울 금천구 독산동 197-6 지상 1층 05-00-04 쏘카 충전구역",
    "road_address": "",
    "lat": 37.47003243,
    "lng": 126.90124437,
    "sido": "서울특별시",
    "sigungu": "금천구"
  },
  {
    "name": "쏘카존 거주자 06-00-05 구획",
    "address": "서울 금천구 독산동 982-6 지상 1층 06-00-05 쏘카 충전구역",
    "road_address": "",
    "lat": 37.4740886,
    "lng": 126.8989102,
    "sido": "서울특별시",
    "sigungu": "금천구"
  },
  {
    "name": "쏘카존 거주자 10-00-24 구획",
    "address": "서울 금천구 시흥동 812-4 지상 1층 10-00-24 쏘카 충전구역",
    "road_address": "",
    "lat": 37.45887258,
    "lng": 126.90689348,
    "sido": "서울특별시",
    "sigungu": "금천구"
  },
  {
    "name": "쏘카존 거주자 11-99-32 구획",
    "address": "서울 금천구 시흥동 933-24 지상 1층 구획번호 11-99-32",
    "road_address": "",
    "lat": 37.4485357,
    "lng": 126.90630054,
    "sido": "서울특별시",
    "sigungu": "금천구"
  },
  {
    "name": "쏘카존 금천롯데캐슬골드파크3차 상가주차장",
    "address": "서울 금천구 독산동 1155 지하 3층 88 전기차 충전구역",
    "road_address": "서울 금천구 시흥대로 291",
    "lat": 37.45954411,
    "lng": 126.8974265,
    "sido": "서울특별시",
    "sigungu": "금천구"
  },
  {
    "name": "쏘카존 금천롯데캐슬골드파크3차 상가주차장",
    "address": "서울 금천구 독산동 1155 지하 3층 102-108구역",
    "road_address": "서울 금천구 시흥대로 291",
    "lat": 37.46026936,
    "lng": 126.89735769,
    "sido": "서울특별시",
    "sigungu": "금천구"
  },
  {
    "name": "쏘카존 금천엠타워",
    "address": "서울 금천구 시흥동 1031 지하 4층",
    "road_address": "서울 금천구 시흥대로73길 67",
    "lat": 37.45597286,
    "lng": 126.89577784,
    "sido": "서울특별시",
    "sigungu": "금천구"
  },
  {
    "name": "쏘카존 남부세차장",
    "address": "서울 금천구 독산동 148-32 지상 1층",
    "road_address": "서울 금천구 가산로 88",
    "lat": 37.47393009,
    "lng": 126.8948519,
    "sido": "서울특별시",
    "sigungu": "금천구"
  },
  {
    "name": "쏘카존 남부여성발전센터 공영주차장",
    "address": "서울 금천구 시흥동 산 139-2 지하 1층",
    "road_address": "서울 금천구 독산로50길 23",
    "lat": 37.46291391,
    "lng": 126.90611645,
    "sido": "서울특별시",
    "sigungu": "금천구"
  },
  {
    "name": "쏘카존 뉴금천휘트니스",
    "address": "서울 금천구 시흥동 8-17 지상 1층",
    "road_address": "서울 금천구 독산로54길 32",
    "lat": 37.46400587,
    "lng": 126.90717648,
    "sido": "서울특별시",
    "sigungu": "금천구"
  },
  {
    "name": "쏘카존 대륭테크노타운18차 주차장",
    "address": "서울 금천구 가산동 670-2 지하 4층 C7 쏘카 주차구역",
    "road_address": "서울 금천구 가산디지털1로 19",
    "lat": 37.46757122,
    "lng": 126.88658623,
    "sido": "서울특별시",
    "sigungu": "금천구"
  },
  {
    "name": "쏘카존 독산1동 공영주차장",
    "address": "서울 금천구 독산동 1006-94 지상 1층",
    "road_address": "서울 금천구 범안로12가길 65",
    "lat": 37.46488479,
    "lng": 126.89478545,
    "sido": "서울특별시",
    "sigungu": "금천구"
  },
  {
    "name": "쏘카존 독산2동 공영주차장",
    "address": "서울 금천구 독산동 1050-17 지상 3층",
    "road_address": "서울 금천구 시흥대로98길 36",
    "lat": 37.46381801,
    "lng": 126.89999786,
    "sido": "서울특별시",
    "sigungu": "금천구"
  },
  {
    "name": "쏘카존 독산동 유료 공영주차장",
    "address": "서울 금천구 독산동 1040-58 지상 1층 구획번호 03-35-29",
    "road_address": "",
    "lat": 37.46578409,
    "lng": 126.90333551,
    "sido": "서울특별시",
    "sigungu": "금천구"
  },
  {
    "name": "쏘카존 독산동 청년주택",
    "address": "서울 금천구 독산동 332-13 지상 1층",
    "road_address": "서울 금천구 범안로15길 21",
    "lat": 37.46737679,
    "lng": 126.89256749,
    "sido": "서울특별시",
    "sigungu": "금천구"
  },
  {
    "name": "쏘카존 독산동금천교 노상공영주차장",
    "address": "서울 금천구 독산동 1081-4 지상 1층",
    "road_address": "",
    "lat": 37.46655629,
    "lng": 126.88997894,
    "sido": "서울특별시",
    "sigungu": "금천구"
  },
  {
    "name": "쏘카존 디밸리오피스텔",
    "address": "서울 금천구 독산동 292-11 지하2층 카셰어링 주차구역",
    "road_address": "서울 금천구 범안로21길 8",
    "lat": 37.4670283,
    "lng": 126.89684316,
    "sido": "서울특별시",
    "sigungu": "금천구"
  },
  {
    "name": "쏘카존 롯데마트 VIC 금천점",
    "address": "서울 금천구 독산동 295-10 지상 6층 옥상층",
    "road_address": "서울 금천구 두산로 71",
    "lat": 37.47059441,
    "lng": 126.89571346,
    "sido": "서울특별시",
    "sigungu": "금천구"
  },
  {
    "name": "쏘카존 롯데마트 금천점",
    "address": "서울 금천구 독산동 1155 지하 3층 114번 쏘카 주차구역",
    "road_address": "서울 금천구 시흥대로 291",
    "lat": 37.45962115,
    "lng": 126.89795763,
    "sido": "서울특별시",
    "sigungu": "금천구"
  },
  {
    "name": "쏘카존 리더스타워 주차장",
    "address": "서울 금천구 가산동 60-15 지하 3층",
    "road_address": "서울 금천구 벚꽃로 286",
    "lat": 37.4804994,
    "lng": 126.88430775,
    "sido": "서울특별시",
    "sigungu": "금천구"
  },
  {
    "name": "쏘카존 마리오아울렛 3관 주차장",
    "address": "서울 금천구 가산동 60-20 지하 3층 311 기둥 옆 2면",
    "road_address": "서울 금천구 벚꽃로 266",
    "lat": 37.47845571,
    "lng": 126.88501638,
    "sido": "서울특별시",
    "sigungu": "금천구"
  },
  {
    "name": "쏘카존 백상스타타워2차 주차장",
    "address": "서울 금천구 가산동 459-22 지하 2층",
    "road_address": "서울 금천구 가산디지털2로 165",
    "lat": 37.48243057,
    "lng": 126.87746107,
    "sido": "서울특별시",
    "sigungu": "금천구"
  },
  {
    "name": "쏘카존 벽산디지털밸리 5차 주차장",
    "address": "서울 금천구 가산동 60-73 지하 2층",
    "road_address": "서울 금천구 벚꽃로 244",
    "lat": 37.47665181,
    "lng": 126.88586479,
    "sido": "서울특별시",
    "sigungu": "금천구"
  },
  {
    "name": "쏘카존 삼성체육공원 공영주차장",
    "address": "서울 금천구 시흥동 171-1 지상 1층 쏘카 충전구역",
    "road_address": "서울 금천구 독산로24마길 30",
    "lat": 37.45470798,
    "lng": 126.90904152,
    "sido": "서울특별시",
    "sigungu": "금천구"
  },